file_name|id|source_org|source_file|original_id|type|name|address|city|state|zip_code|county|location_description|phone|url|latitude|longitude|latlng_source|date_from|date_to|open_to_spec_group|data_issues|food_bucks|snap|wic|fmnp|fresh_produce|free_distribution|food_rx|group_id|merged_record|timestamp|in_error
ARC_GIS_SUMMER_MEAL_QUERY|30|Allegheny County|https://services1.arcgis.com/vdNDkVykv9vEWFX4/arcgis/rest/services/Child_Nutrition/FeatureServer|0|summer meal site|Brashear High School|590 Crane Avenue|Pittsburgh|PA|15216|Allegheny|Site Hours: Monday through Friday this site serves breakfast and lunch from 9:30-10:30 am.<br/>|||40.4169833196409|-80.0183737650599|Arc_Gis|||children and teens 18 and younger||False|False|False|False|False|True|False||False||False
ARC_GIS_SUMMER_MEAL_QUERY|7|Allegheny County|https://services1.arcgis.com/vdNDkVykv9vEWFX4/arcgis/rest/services/Child_Nutrition/FeatureServer|0|summer meal site|Brashear High School|590 Crane Avenue|Pittsburgh|PA|15216|Allegheny|Service Type: Grab and Go<br/>Site Hours: Call the school at (412) 529-4160 for updated meal service times.<br/>|||40.4169833196409|-80.0183737650599|Arc_Gis|||children and teens 18 and younger||False|False|False|False|False|True|False||False||False
ARC_GIS_SUMMER_MEAL_QUERY|31|Allegheny County|https://services1.arcgis.com/vdNDkVykv9vEWFX4/arcgis/rest/services/Child_Nutrition/FeatureServer|0|summer meal site|South Hills Middle School|595 Crane Avenue|Pittsburgh|PA|15216|Allegheny|Site Hours: Monday through Friday this site serves breakfast and lunch from 9:30-10:30 am.<br/>|||40.4194589985625|-80.0181880220856|Arc_Gis|||children and teens 18 and younger||False|False|False|False|False|True|False||False||False
ARC_GIS_SUMMER_MEAL_QUERY|8|Allegheny County|https://services1.arcgis.com/vdNDkVykv9vEWFX4/arcgis/rest/services/Child_Nutrition/FeatureServer|0|summer meal site|South Hills Middle School|595 Crane Avenue|Pittsburgh|PA|15216|Allegheny|Service Type: Grab and Go<br/>Site Hours: Call the school at (412) 529-8130 for updated meal service times.<br/>|||40.4194589985625|-80.0181880220856|Arc_Gis|||children and teens 18 and younger||False|False|False|False|False|True|False||False||False
ARC_GIS_SUMMER_MEAL_QUERY|32|Allegheny County|https://services1.arcgis.com/vdNDkVykv9vEWFX4/arcgis/rest/services/Child_Nutrition/FeatureServer|0|summer meal site|Spring Garden Early Childhood Center|1501 Spring Garden Avenue|Pittsburgh|PA|15212|Allegheny|Site Hours: Monday through Friday this site serves breakfast and lunch from 10:30-11:30 am.<br/>|||40.4644558208363|-79.9858055449955|Arc_Gis|||children and teens 18 and younger||False|False|False|False|False|True|False||False||False
ARC_GIS_SUMMER_MEAL_QUERY|9|Allegheny County|https://services1.arcgis.com/vdNDkVykv9vEWFX4/arcgis/rest/services/Child_Nutrition/FeatureServer|0|summer meal site|Spring Garden Early Childhood Center|1501 Spring Garden Avenue|Pittsburgh|PA|15212|Allegheny|Service Type: Grab and Go<br/>Site Hours: Call the school at (412) 529-4591 for updated meal service times.<br/>|||40.4644558208363|-79.9858055449955|Arc_Gis|||children and teens 18 and younger||False|False|False|False|False|True|False||False||False
ARC_GIS_SUMMER_MEAL_QUERY|23|Allegheny County|https://services1.arcgis.com/vdNDkVykv9vEWFX4/arcgis/rest/services/Child_Nutrition/FeatureServer|0|summer meal site|Oliver High School|2323 Brighton Road|Pittsburgh|PA|15212|Allegheny|Site Hours: Monday through Friday this site serves breakfast and lunch from 9:45-10:45 am.<br/>|||40.4648653606254|-80.0241136085355|Arc_Gis|||children and teens 18 and younger||False|False|False|False|False|True|False||False||False
ARC_GIS_SUMMER_MEAL_QUERY|10|Allegheny County|https://services1.arcgis.com/vdNDkVykv9vEWFX4/arcgis/rest/services/Child_Nutrition/FeatureServer|0|summer meal site|Oliver High School|2323 Brighton Road|Pittsburgh|PA|15212|Allegheny|Service Type: Grab and Go<br/>Site Hours: Call the school at (412) 529-3125 for updated meal service times.<br/>|||40.4648653606254|-80.0241136085355|Arc_Gis|||children and teens 18 and younger||False|False|False|False|False|True|False||False||False
ARC_GIS_SUMMER_MEAL_QUERY|24|Allegheny County|https://services1.arcgis.com/vdNDkVykv9vEWFX4/arcgis/rest/services/Child_Nutrition/FeatureServer|0|summer meal site|Conroy Education Center|1398 Page Street|Pittsburgh|PA|15233|Allegheny|Site Hours: Monday through Friday this site serves breakfast and lunch from 9:45-10:45 am.<br/>|||40.4514753122123|-80.0246920436736|Arc_Gis|||children and teens 18 and younger||False|False|False|False|False|True|False||False||False
ARC_GIS_SUMMER_MEAL_QUERY|11|Allegheny County|https://services1.arcgis.com/vdNDkVykv9vEWFX4/arcgis/rest/services/Child_Nutrition/FeatureServer|0|summer meal site|Conroy Education Center|1398 Page Street|Pittsburgh|PA|15233|Allegheny|Service Type: Grab and Go<br/>Site Hours: Call the school at (412) 529-3105 for updated meal service times.<br/>|||40.4514753122123|-80.0246920436736|Arc_Gis|||children and teens 18 and younger||False|False|False|False|False|True|False||False||False
ARC_GIS_SUMMER_MEAL_QUERY|35|Allegheny County|https://services1.arcgis.com/vdNDkVykv9vEWFX4/arcgis/rest/services/Child_Nutrition/FeatureServer|0|summer meal site|Langley K-8|2940 Sheraden Blvd|Pittsburgh|PA|15204|Allegheny|Site Hours: Monday through Friday this site serves breakfast and lunch from 9:30-10:30 am.<br/>|||40.4546162208796|-80.0540851988151|Arc_Gis|||children and teens 18 and younger||False|False|False|False|False|True|False||False||False
ARC_GIS_SUMMER_MEAL_QUERY|12|Allegheny County|https://services1.arcgis.com/vdNDkVykv9vEWFX4/arcgis/rest/services/Child_Nutrition/FeatureServer|0|summer meal site|Langley K-8|2940 Sheraden Blvd|Pittsburgh|PA|15204|Allegheny|Service Type: Grab and Go<br/>Site Hours: Call the school at (412) 529-2100 for updated meal service times.<br/>|||40.4546162208796|-80.0540851988151|Arc_Gis|||children and teens 18 and younger||False|False|False|False|False|True|False||False||False
ARC_GIS_SUMMER_MEAL_QUERY|26|Allegheny County|https://services1.arcgis.com/vdNDkVykv9vEWFX4/arcgis/rest/services/Child_Nutrition/FeatureServer|0|summer meal site|Westinghouse Academy|1101 North Murtland Street|Pittsburgh|PA|15208|Allegheny|Site Hours: Monday through Friday this site serves breakfast and lunch from 9:30-10:30 am.<br/>|||40.4606358941928|-79.9003167543098|Arc_Gis|||children and teens 18 and younger||False|False|False|False|False|True|False||False||False
ARC_GIS_SUMMER_MEAL_QUERY|13|Allegheny County|https://services1.arcgis.com/vdNDkVykv9vEWFX4/arcgis/rest/services/Child_Nutrition/FeatureServer|0|summer meal site|Westinghouse Academy|1101 North Murtland Street|Pittsburgh|PA|15208|Allegheny|Service Type: Grab and Go<br/>Site Hours: Call the school at (412) 529-3940 for updated meal service times.<br/>|||40.4606358941928|-79.9003167543098|Arc_Gis|||children and teens 18 and younger||False|False|False|False|False|True|False||False||False
ARC_GIS_SUMMER_MEAL_QUERY|27|Allegheny County|https://services1.arcgis.com/vdNDkVykv9vEWFX4/arcgis/rest/services/Child_Nutrition/FeatureServer|0|summer meal site|Obama Academy|515 North Highland Avenue|Pittsburgh|PA|15206|Allegheny|Site Hours: Monday through Friday this site serves breakfast and lunch from 10-11am.<br/>|||40.4669320864915|-79.9223150591936|Arc_Gis|||children and teens 18 and younger||False|False|False|False|False|True|False||False||False
ARC_GIS_SUMMER_MEAL_QUERY|14|Allegheny County|https://services1.arcgis.com/vdNDkVykv9vEWFX4/arcgis/rest/services/Child_Nutrition/FeatureServer|0|summer meal site|Obama Academy|515 North Highland Avenue|Pittsburgh|PA|15206|Allegheny|Service Type: Grab and Go<br/>Site Hours: Call the school at (412) 529-5980 for updated meal service times.<br/>|||40.4669320864915|-79.9223150591936|Arc_Gis|||children and teens 18 and younger||False|False|False|False|False|True|False||False||False
ARC_GIS_SUMMER_MEAL_QUERY|28|Allegheny County|https://services1.arcgis.com/vdNDkVykv9vEWFX4/arcgis/rest/services/Child_Nutrition/FeatureServer|0|summer meal site|Minadeo Elementary School|6502 Lilac Street|Pittsburgh|PA|15217|Allegheny|Site Hours: Monday through Friday this site serves breakfast and lunch from 9:30-10:30 am.<br/>|||40.4231456529457|-79.925689697231|Arc_Gis|||children and teens 18 and younger||False|False|False|False|False|True|False||False||False
ARC_GIS_SUMMER_MEAL_QUERY|15|Allegheny County|https://services1.arcgis.com/vdNDkVykv9vEWFX4/arcgis/rest/services/Child_Nutrition/FeatureServer|0|summer meal site|Minadeo Elementary School|6502 Lilac Street|Pittsburgh|PA|15217|Allegheny|Service Type: Grab and Go<br/>Site Hours: Call the school at (412) 529-4291 for updated meal service times.<br/>|||40.4231456529457|-79.925689697231|Arc_Gis|||children and teens 18 and younger||False|False|False|False|False|True|False||False||False
ARC_GIS_SUMMER_MEAL_QUERY|29|Allegheny County|https://services1.arcgis.com/vdNDkVykv9vEWFX4/arcgis/rest/services/Child_Nutrition/FeatureServer|0|summer meal site|Carmalt Academy of Science and Tech|1550 Breining Street|Pittsburgh|PA|15234|Allegheny|Site Hours: Monday through Friday this site serves breakfast and lunch from 9:30-10:30 am.<br/>|||40.3883917678092|-80.0067275296928|Arc_Gis|||children and teens 18 and younger||False|False|False|False|False|True|False||False||False
ARC_GIS_SUMMER_MEAL_QUERY|18|Allegheny County|https://services1.arcgis.com/vdNDkVykv9vEWFX4/arcgis/rest/services/Child_Nutrition/FeatureServer|0|summer meal site|Carmalt Academy of Science and Tech|1550 Breining Street|Pittsburgh|PA|15234|Allegheny|Service Type: Grab and Go<br/>Site Hours: Call the school at (412) 529-7760 for updated meal service times.<br/>|||40.3883917678092|-80.0067275296928|Arc_Gis|||children and teens 18 and younger||False|False|False|False|False|True|False||False||False
ARC_GIS_SUMMER_MEAL_QUERY|33|Allegheny County|https://services1.arcgis.com/vdNDkVykv9vEWFX4/arcgis/rest/services/Child_Nutrition/FeatureServer|0|summer meal site|Weil Elementary School|2250 Centre Avenue|Pittsburgh|PA|15219|Allegheny|Site Hours: Monday through Friday this site serves breakfast and lunch from 9:30-10:30 am.<br/>|||40.4451812153891|-79.974002400401|Arc_Gis|||children and teens 18 and younger||False|False|False|False|False|True|False||False||False
ARC_GIS_SUMMER_MEAL_QUERY|20|Allegheny County|https://services1.arcgis.com/vdNDkVykv9vEWFX4/arcgis/rest/services/Child_Nutrition/FeatureServer|0|summer meal site|Weil Elementary School|2250 Centre Avenue|Pittsburgh|PA|15219|Allegheny|Service Type: Grab and Go<br/>Site Hours: Call the school at  (412) 529-3840 for updated meal service times.<br/>|||40.4451812153891|-79.974002400401|Arc_Gis|||children and teens 18 and younger||False|False|False|False|False|True|False||False||False
ARC_GIS_SUMMER_MEAL_QUERY|34|Allegheny County|https://services1.arcgis.com/vdNDkVykv9vEWFX4/arcgis/rest/services/Child_Nutrition/FeatureServer|0|summer meal site|Pittsburgh Science & Technology Academy|107 Thackeray Avenue|Pittsburgh|PA|15260|Allegheny|Site Hours: Monday through Friday this site serves breakfast and lunch from 9:30-10:30 am.<br/>|||40.4438208325038|-79.9574247561197|Arc_Gis|||children and teens 18 and younger||False|False|False|False|False|True|False||False||False
ARC_GIS_SUMMER_MEAL_QUERY|21|Allegheny County|https://services1.arcgis.com/vdNDkVykv9vEWFX4/arcgis/rest/services/Child_Nutrition/FeatureServer|0|summer meal site|Pittsburgh Science & Technology Academy|107 Thackeray Avenue|Pittsburgh|PA|15260|Allegheny|Service Type: Grab and Go<br/>Site Hours: Call the school at (412) 529-7620 for updated meal service times.<br/>|||40.4438208325038|-79.9574247561197|Arc_Gis|||children and teens 18 and younger||False|False|False|False|False|True|False||False||False
Just Harvest Google Sheets|3|Just Harvest|Just Harvest Google Sheets||farmer's market|Carrick Farmers Market|1529 Brownsville Road|Pittsburgh|PA|15210|Allegheny|June 19th-November 27th<br/>Wednesdays 3pm-7pm|||40.400025|-79.988675|MapBox GeoCode|June 19th|November 27th|||True|True|True|True|True|False|False||False||False
ARC_GIS_FMNP_QUERY|1|FMNP Markets|https://services5.arcgis.com/n3KaqXoFYDuIhfyz/ArcGIS/rest/services/FMNPMarkets/FeatureServer|51|farmer's market|Carrick Citiparks Farmers Market|1529 Brownsville Road|Pittsburgh|PA|15210|Allegheny|<br/>|4124226547||40.3913414|-79.986603|Arc_Gis| 1||||True|True|True|True|True|False|False||False||False
ARC_GIS_FMNP_QUERY|26|FMNP Markets|https://services5.arcgis.com/n3KaqXoFYDuIhfyz/ArcGIS/rest/services/FMNPMarkets/FeatureServer|3446|farmer's market|Green Grocer/Wilerding Apartments|314 Commerce St|Wilmerding|PA|15148|Allegheny||||40.392952|-79.807811|Arc_Gis|||||True|True|False|True|True|False|False||False||False
ARC_GIS_FMNP_QUERY|8|FMNP Markets|https://services5.arcgis.com/n3KaqXoFYDuIhfyz/ArcGIS/rest/services/FMNPMarkets/FeatureServer|3687|farmer's market|Green Grocer/Wilmerding Apt|314 Commerce St|Wilmerding|PA|15148|Allegheny|June - November Thursday 3:30 PM - 4:30 PM 1st and 3rd Thursday only|||40.3927482|-79.8076205|Arc_Gis|June 1|November 30|||True|True|False|True|True|False|False||False||False
Just Harvest Google Sheets|2|Just Harvest|Just Harvest Google Sheets||supermarket|Bloomfield Saturday Market|5050 Liberty Ave|Pittsburgh|PA|15224|Allegheny|May 18th-November 2nd<br/>Saturdays 9am-1pm|||40.45943|-79.944838|MapBox GeoCode|May 18th|November 2nd|||True|True|True|True|True|False|False||False||False
ARC_GIS_SNAP_QUERY|361|USDA Food and Nutrition Service|https://services1.arcgis.com/RLQu0rK7h4kbsBq5/arcgis/rest/services/Store_Locations/FeatureServer|88354|supermarket|Bloomfield Saturday Market|5050 Liberty Ave|Pittsburgh|PA|15224|ALLEGHENY||||40.459114|-79.944321|Arc_Gis|||||True|True|False|False|True|False|False||False||False
ARC_GIS_SNAP_QUERY|479|USDA Food and Nutrition Service|https://services1.arcgis.com/RLQu0rK7h4kbsBq5/arcgis/rest/services/Store_Locations/FeatureServer|122576|farmer's market|Just Harvest - Forest Hills Farmers Market|1840 Ardmore Blvd|Pittsburgh|PA|15221|ALLEGHENY||||40.425652|-79.861649|Arc_Gis|||||True|True|True|True|True|False|False||False||False
ARC_GIS_FMNP_QUERY|77|FMNP Markets|https://services5.arcgis.com/n3KaqXoFYDuIhfyz/ArcGIS/rest/services/FMNPMarkets/FeatureServer|929|farmer's market|Forest Hills Farmers Market|1840 Ardmore Blvd|Forest Hills|PA|15221|Allegheny|June - October Friday 4:00 PM - 7:00 PM<br/>June - October Friday 4:00 PM - 7:00 PM<br/>June - October Friday 4:00 PM - 7:00 PM<br/>June - October Friday 4:00 PM - 7:00 PM|7243391709||40.4249212|-79.8611049|Arc_Gis|June 1|October 31|||True|True|True|True|True|False|False||False||False
WIC_WS_QUERY|46|PA WIC|https://www.pawic.com||supermarket|Haymaker Village Shop N Save|4548 BROADWAY BLVD|MONROEVILLE|PA|15146|Allegheny||(734) 373-2737|http://maps.google.com?saddr=Current+Location&daddr=4548%20BROADWAY%20BLVD%20MONROEVILLE,%20PA%2015146-4745|40.39572|-79.7678|MapBox GeoCode|||||False|False|True|False|True|False|False||False||False
ARC_GIS_SNAP_QUERY|11|USDA Food and Nutrition Service|https://services1.arcgis.com/RLQu0rK7h4kbsBq5/arcgis/rest/services/Store_Locations/FeatureServer|6100|supermarket|Haymaker Village Supermarkets|4548 Broadway Blvd|Monroeville|PA|15146|ALLEGHENY||||40.389145|-79.767189|Arc_Gis|||||True|True|False|False|True|False|False||False||False
WIC_WS_QUERY|41|PA WIC|https://www.pawic.com||supermarket|Giant Eagle Verona #695|200 ALLEGHENY RIVER BLVD|VERONA|PA|15147|Allegheny||(412) 828-1271|http://maps.google.com?saddr=Current+Location&daddr=200%20ALLEGHENY%20RIVER%20BLVD%20VERONA,%20PA%2015147-1053|40.499285|-79.84435|MapBox GeoCode|||||False|False|True|False|True|False|False||False||False
ARC_GIS_SNAP_QUERY|43|USDA Food and Nutrition Service|https://services1.arcgis.com/RLQu0rK7h4kbsBq5/arcgis/rest/services/Store_Locations/FeatureServer|15256|supermarket|VERONA GIANT EAGLE|200 Allegheny River Blvd|Verona|PA|15147|ALLEGHENY||||40.500896|-79.843269|Arc_Gis|||||True|True|False|False|True|False|False||False||False
ARC_GIS_SNAP_QUERY|657|USDA Food and Nutrition Service|https://services1.arcgis.com/RLQu0rK7h4kbsBq5/arcgis/rest/services/Store_Locations/FeatureServer|167306|supermarket|Slivas Pleasant Hills Shop N Save|649 Old Clairton Rd|Pittsburgh|PA|15236|ALLEGHENY||||40.324226|-79.956718|Arc_Gis|||||True|True|False|False|True|False|False||False||False
ARC_GIS_SNAP_QUERY|85|USDA Food and Nutrition Service|https://services1.arcgis.com/RLQu0rK7h4kbsBq5/arcgis/rest/services/Store_Locations/FeatureServer|29617|supermarket|Pleasant Hills Shop N Save|649 Old Clairton Rd|Pittsburgh|PA|15236|ALLEGHENY||||40.324081|-79.957176|Arc_Gis|||||True|True|False|False|True|False|False||False||False
WIC_WS_QUERY|49|PA WIC|https://www.pawic.com||supermarket|Kuhn's Markets South Hills|3125 BANKSVILLE RD|PITTSBURGH|PA|15216|Allegheny||(412) 343-8777|http://maps.google.com?saddr=Current+Location&daddr=3125%20BANKSVILLE%20RD%20PITTSBURGH,%20PA%2015216-2720|40.40074|-80.04306|MapBox GeoCode|||||False|False|True|False|True|False|False||False||False
ARC_GIS_SNAP_QUERY|182|USDA Food and Nutrition Service|https://services1.arcgis.com/RLQu0rK7h4kbsBq5/arcgis/rest/services/Store_Locations/FeatureServer|55496|supermarket|KUHN'S MARKET|3125 Banksville Rd|Pittsburgh|PA|15216|ALLEGHENY||||40.399906|-80.044029|Arc_Gis|||||True|True|False|False|True|False|False||False||False
WIC_WS_QUERY|28|PA WIC|https://www.pawic.com||supermarket|Giant Eagle Greenfield #63|4250 MURRAY AVE|PITTSBURGH|PA|15217|Allegheny||(412) 421-6472|http://maps.google.com?saddr=Current+Location&daddr=4250%20MURRAY%20AVE%20PITTSBURGH,%20PA%2015217-2904|40.422365|-79.929385|MapBox GeoCode|||||False|False|True|False|True|False|False||False||False
ARC_GIS_SNAP_QUERY|191|USDA Food and Nutrition Service|https://services1.arcgis.com/RLQu0rK7h4kbsBq5/arcgis/rest/services/Store_Locations/FeatureServer|59235|supermarket|Giant Eagle 63|4250 Murray Ave|Pittsburgh|PA|15217|ALLEGHENY||||40.422558|-79.928902|Arc_Gis|||||True|True|False|False|True|False|False||False||False
WIC_WS_QUERY|53|PA WIC|https://www.pawic.com||supermarket|Pittsburgh Commissary|79 SOLDIERS LN|CORAOPOLIS|PA|15108|Allegheny||(412) 375-6310|http://maps.google.com?saddr=Current+Location&daddr=79%20SOLDIERS%20LN%20CORAOPOLIS,%20PA%2015108-2550|40.50071|-80.22188|MapBox GeoCode|||||False|False|True|False|True|False|False||False||False
ARC_GIS_SNAP_QUERY|196|USDA Food and Nutrition Service|https://services1.arcgis.com/RLQu0rK7h4kbsBq5/arcgis/rest/services/Store_Locations/FeatureServer|60057|supermarket|Pittsburgh Commissary 2309|79 Soldiers Ln|Coraopolis|PA|15108|ALLEGHENY||||40.501141|-80.217148|Arc_Gis|||||True|True|False|False|True|False|False||False||False
WIC_WS_QUERY|4|PA WIC|https://www.pawic.com||supermarket|Community Supermarket Verona|1117 MILLTOWN RD|VERONA|PA|15147|Allegheny||(412) 793-4020|http://maps.google.com?saddr=Current+Location&daddr=1117%20MILLTOWN%20RD%20VERONA,%20PA%2015147-3716|40.49915|-79.79047|MapBox GeoCode|||||False|False|True|False|True|False|False||False||False
ARC_GIS_SNAP_QUERY|197|USDA Food and Nutrition Service|https://services1.arcgis.com/RLQu0rK7h4kbsBq5/arcgis/rest/services/Store_Locations/FeatureServer|60058|supermarket|COMMUNITY SUPER MKT INC|1117 Milltown Rd|Verona|PA|15147|ALLEGHENY||||40.498421|-79.789978|Arc_Gis|||||True|True|False|False|True|False|False||False||False
WIC_WS_QUERY|69|PA WIC|https://www.pawic.com||supermarket|Shop N Save Russellton|908 Little Deer Creek Valley|RUSSELLTON|PA|15076|Allegheny||(724) 265-2858|http://maps.google.com?saddr=Current+Location&daddr=908%20Little%20Deer%20Creek%20Valley%20RUSSELLTON,%20PA%2015076-0067|40.60914|-79.83337|MapBox GeoCode|||||False|False|True|False|True|False|False||False||False
ARC_GIS_SNAP_QUERY|199|USDA Food and Nutrition Service|https://services1.arcgis.com/RLQu0rK7h4kbsBq5/arcgis/rest/services/Store_Locations/FeatureServer|60073|supermarket|RUSSELLTON SHOP N SAVE|908 LITTLE DEER CREEK VALLEY|RUSSELLTON|PA|15076|ALLEGHENY||||40.607555|-79.833443|Arc_Gis|||||True|True|False|False|True|False|False||False||False
WIC_WS_QUERY|50|PA WIC|https://www.pawic.com||supermarket|Kuhn's Quality Foods|1130 HIGHWOOD ST|PITTSBURGH|PA|15212|Allegheny||(412) 231-8808|http://maps.google.com?saddr=Current+Location&daddr=1130%20HIGHWOOD%20ST%20PITTSBURGH,%20PA%2015212-2771|40.468715|-80.02653|MapBox GeoCode|||||False|False|True|False|True|False|False||False||False
ARC_GIS_SNAP_QUERY|209|USDA Food and Nutrition Service|https://services1.arcgis.com/RLQu0rK7h4kbsBq5/arcgis/rest/services/Store_Locations/FeatureServer|60824|supermarket|KUHN'S MARKET|1130 Highwood St|Pittsburgh|PA|15212|ALLEGHENY||||40.468269|-80.026123|Arc_Gis|||||True|True|False|False|True|False|False||False||False
WIC_WS_QUERY|47|PA WIC|https://www.pawic.com||supermarket|Kuhn's Market Bellevue|661 LINCOLN AVE|BELLEVUE|PA|15202|Allegheny||(412) 766-4546|http://maps.google.com?saddr=Current+Location&daddr=661%20LINCOLN%20AVE%20BELLEVUE,%20PA%2015202-3405|40.497285|-80.060105|MapBox GeoCode|||||False|False|True|False|True|False|False||False||False
ARC_GIS_SNAP_QUERY|215|USDA Food and Nutrition Service|https://services1.arcgis.com/RLQu0rK7h4kbsBq5/arcgis/rest/services/Store_Locations/FeatureServer|61580|supermarket|KUHNS MARKET|661 Lincoln Ave|Bellevue|PA|15202|ALLEGHENY||||40.497795|-80.060165|Arc_Gis|||||True|True|False|False|True|False|False||False||False
WIC_WS_QUERY|57|PA WIC|https://www.pawic.com||supermarket|Shaler Shop N Save|1620 Babcock Blvd|Pittsburgh|PA|15209|Allegheny||(412) 821-1400|http://maps.google.com?saddr=Current+Location&daddr=1620%20Babcock%20Blvd%20Pittsburgh,%20PA%2015209-1697|40.499485|-79.979602|MapBox GeoCode|||||False|False|True|False|True|False|False||False||False
ARC_GIS_SNAP_QUERY|237|USDA Food and Nutrition Service|https://services1.arcgis.com/RLQu0rK7h4kbsBq5/arcgis/rest/services/Store_Locations/FeatureServer|64172|supermarket|SHALER SHOP N SAVE|1620 Babcock Blvd|Pittsburgh|PA|15209|ALLEGHENY||||40.498802|-79.979286|Arc_Gis|||||True|True|False|False|True|False|False||False||False
WIC_WS_QUERY|11|PA WIC|https://www.pawic.com||supermarket|Giant Eagle #641|1025 Washington Pike|Bridgeville|PA|15017|Allegheny||(412) 221-1422|http://maps.google.com?saddr=Current+Location&daddr=1025%20Washington%20Pike%20Bridgeville,%20PA%2015017|40.364555|-80.11027|MapBox GeoCode|||||False|False|True|False|True|False|False||False||False
ARC_GIS_SNAP_QUERY|242|USDA Food and Nutrition Service|https://services1.arcgis.com/RLQu0rK7h4kbsBq5/arcgis/rest/services/Store_Locations/FeatureServer|64775|supermarket|Giant Eagle 641|1025 Washington Pike|Bridgeville|PA|15017|ALLEGHENY||||40.366562|-80.106277|Arc_Gis|||||True|True|False|False|True|False|False||False||False
WIC_WS_QUERY|72|PA WIC|https://www.pawic.com||convenience store|Unimart|551 N STATE ST|CLAIRTON|PA|15025|Allegheny|||http://maps.google.com?saddr=Current+Location&daddr=551%20N%20STATE%20ST%20CLAIRTON,%20PA%2015025-2254|40.309465|-79.89116|MapBox GeoCode|||||False|False|True|False|False|False|False||False||False
ARC_GIS_SNAP_QUERY|250|USDA Food and Nutrition Service|https://services1.arcgis.com/RLQu0rK7h4kbsBq5/arcgis/rest/services/Store_Locations/FeatureServer|66309|convenience store|Unimart|551 N State St|Clairton|PA|15025|ALLEGHENY||||40.309601|-79.890945|Arc_Gis|||||True|True|False|False|False|False|False||False||False
WIC_WS_QUERY|54|PA WIC|https://www.pawic.com||supermarket|Rochester Road Shop-N-Save|184 Rochester Rd|West View|PA|15229|Allegheny||(412) 931-0743|http://maps.google.com?saddr=Current+Location&daddr=184%20Rochester%20Rd%20West%20View,%20PA%2015229-1399|40.519795|-80.017825|MapBox GeoCode|||||False|False|True|False|True|False|False||False||False
ARC_GIS_SNAP_QUERY|287|USDA Food and Nutrition Service|https://services1.arcgis.com/RLQu0rK7h4kbsBq5/arcgis/rest/services/Store_Locations/FeatureServer|73444|supermarket|ROCHESTER ROAD SHOP AND SAVE|184 Rochester Rd|West View|PA|15229|ALLEGHENY||||40.520245|-80.018051|Arc_Gis|||||True|True|False|False|True|False|False||False||False
WIC_WS_QUERY|1|PA WIC|https://www.pawic.com||supermarket|Century Square Shop N Save|2381 MOUNTAIN VIEW DR|WEST MIFFLIN|PA|15122|Allegheny||(412) 655-7090|http://maps.google.com?saddr=Current+Location&daddr=2381%20MOUNTAIN%20VIEW%20DR%20WEST%20MIFFLIN,%20PA%2015122-2458|40.34789|-79.94469|MapBox GeoCode|||||False|False|True|False|True|False|False||False||False
ARC_GIS_SNAP_QUERY|311|USDA Food and Nutrition Service|https://services1.arcgis.com/RLQu0rK7h4kbsBq5/arcgis/rest/services/Store_Locations/FeatureServer|78953|supermarket|Century Square Shop N Save|2381 Mountain View Dr|West Mifflin|PA|15122|ALLEGHENY||||40.346218|-79.943558|Arc_Gis|||||True|True|False|False|True|False|False||False||False
WIC_WS_QUERY|59|PA WIC|https://www.pawic.com||supermarket|Shop N Save Glenshaw|917 BUTLER ST|PITTSBURGH|PA|15223|Allegheny||(412) 487-1460|http://maps.google.com?saddr=Current+Location&daddr=917%20BUTLER%20ST%20PITTSBURGH,%20PA%2015223-1303|40.511645|-79.94945|MapBox GeoCode|||||False|False|True|False|True|False|False||False||False
ARC_GIS_SNAP_QUERY|320|USDA Food and Nutrition Service|https://services1.arcgis.com/RLQu0rK7h4kbsBq5/arcgis/rest/services/Store_Locations/FeatureServer|80409|supermarket|GLENSHAW SHOP N SAVE|917 Butler St|Pittsburgh|PA|15223|ALLEGHENY||||40.511703|-79.948013|Arc_Gis|||||True|True|False|False|True|False|False||False||False
WIC_WS_QUERY|66|PA WIC|https://www.pawic.com||supermarket|Shop N Save Noblestown|2103 NOBLESTOWN RD|PITTSBURGH|PA|15205|Allegheny||(412) 921-0117|http://maps.google.com?saddr=Current+Location&daddr=2103%20NOBLESTOWN%20RD%20PITTSBURGH,%20PA%2015205-3936|40.431015|-80.052315|MapBox GeoCode|||||False|False|True|False|True|False|False||False||False
ARC_GIS_SNAP_QUERY|339|USDA Food and Nutrition Service|https://services1.arcgis.com/RLQu0rK7h4kbsBq5/arcgis/rest/services/Store_Locations/FeatureServer|83422|supermarket|Noblestown Rd. Shop N Save|2103 Noblestown Rd|Pittsburgh|PA|15205|ALLEGHENY||||40.432098|-80.052467|Arc_Gis|||||True|True|False|False|True|False|False||False||False
Just Harvest Google Sheets|5|Just Harvest|Just Harvest Google Sheets||convenience store|In & Out Corner Market|300 Helen St.|McKees Rocks|PA|15136|Allegheny|McKees Rocks|||40.47413|-80.05711|MapBox GeoCode|||||True|True|False|False|True|False|False||False||False
ARC_GIS_SNAP_QUERY|344|USDA Food and Nutrition Service|https://services1.arcgis.com/RLQu0rK7h4kbsBq5/arcgis/rest/services/Store_Locations/FeatureServer|84140|convenience store|In & Out Corner Market |300 Helen St|McKees Rocks|PA|15136|ALLEGHENY||||40.47398|-80.057198|Arc_Gis|||||True|True|False|False|False|False|False||False||False
WIC_WS_QUERY|58|PA WIC|https://www.pawic.com||supermarket|Shop N Save Castle Shannon|799 CASTLE SHANNON BLVD|PITTSBURGH|PA|15234|Allegheny||(412) 561-1418|http://maps.google.com?saddr=Current+Location&daddr=799%20CASTLE%20SHANNON%20BLVD%20PITTSBURGH,%20PA%2015234-1601|40.36897|-80.02838|MapBox GeoCode|||||False|False|True|False|True|False|False||False||False
ARC_GIS_SNAP_QUERY|354|USDA Food and Nutrition Service|https://services1.arcgis.com/RLQu0rK7h4kbsBq5/arcgis/rest/services/Store_Locations/FeatureServer|87436|supermarket|CASTLE SHANNON SHOP N SAVE|799 Castle Shannon Blvd|Pittsburgh|PA|15234|ALLEGHENY||||40.368637|-80.028931|Arc_Gis|||||True|True|False|False|True|False|False||False||False
WIC_WS_QUERY|62|PA WIC|https://www.pawic.com||supermarket|Shop N Save Imperial|600 MARKET PLACE DR|OAKDALE|PA|15071|Allegheny||(724) 695-1669|http://maps.google.com?saddr=Current+Location&daddr=600%20MARKET%20PLACE%20DR%20OAKDALE,%20PA%2015071-4008|40.4409|-80.23975|MapBox GeoCode|||||False|False|True|False|True|False|False||False||False
ARC_GIS_SNAP_QUERY|355|USDA Food and Nutrition Service|https://services1.arcgis.com/RLQu0rK7h4kbsBq5/arcgis/rest/services/Store_Locations/FeatureServer|87461|supermarket|IMPERIAL SHOP N SAVE|600 Market Place Dr|Oakdale|PA|15071|ALLEGHENY||||40.440285|-80.239944|Arc_Gis|||||True|True|False|False|True|False|False||False||False
ARC_GIS_SNAP_QUERY|873|USDA Food and Nutrition Service|https://services1.arcgis.com/RLQu0rK7h4kbsBq5/arcgis/rest/services/Store_Locations/FeatureServer|231643|convenience store|7-eleven Store #36127 36127|137 Clever Rd|McKees Rocks|PA|15136|ALLEGHENY||||40.467995|-80.10453|Arc_Gis|||||True|True|False|False|False|False|False||False||False
ARC_GIS_SNAP_QUERY|407|USDA Food and Nutrition Service|https://services1.arcgis.com/RLQu0rK7h4kbsBq5/arcgis/rest/services/Store_Locations/FeatureServer|100691|convenience store|7 Eleven 36127H|137 Clever Rd|McKees Rocks|PA|15136|ALLEGHENY||||40.467995|-80.104538|Arc_Gis|||||True|True|False|False|False|False|False||False||False
WIC_WS_QUERY|52|PA WIC|https://www.pawic.com||other|Murray Avenue Kosher|1916 MURRAY AVE|PITTSBURGH|PA|15217|Allegheny||(412) 421-1015|http://maps.google.com?saddr=Current+Location&daddr=1916%20MURRAY%20AVE%20PITTSBURGH,%20PA%2015217-1608|40.43568|-79.92298|MapBox GeoCode|||||False|False|True|False|False|False|False||False||False
ARC_GIS_SNAP_QUERY|422|USDA Food and Nutrition Service|https://services1.arcgis.com/RLQu0rK7h4kbsBq5/arcgis/rest/services/Store_Locations/FeatureServer|104529|other|MURRAY AVE KOSHER, INC.|1916 Murray Ave|Pittsburgh|PA|15217|ALLEGHENY||||40.43544|-79.922867|Arc_Gis|||||True|True|False|False|False|False|False||False||False
WIC_WS_QUERY|10|PA WIC|https://www.pawic.com||supermarket|Giant Eagle #43|155 TOWNE CENTRE DR|WEXFORD|PA|15090|Allegheny||(724) 934-0155|http://maps.google.com?saddr=Current+Location&daddr=155%20TOWNE%20CENTRE%20DR%20WEXFORD,%20PA%2015090-5613|40.632325|-80.05473|MapBox GeoCode|||||False|False|True|False|True|False|False||False||False
ARC_GIS_SNAP_QUERY|474|USDA Food and Nutrition Service|https://services1.arcgis.com/RLQu0rK7h4kbsBq5/arcgis/rest/services/Store_Locations/FeatureServer|121159|supermarket|Giant Eagle 43|155 Towne Centre Dr|Wexford|PA|15090|ALLEGHENY||||40.631577|-80.05455|Arc_Gis|||||True|True|False|False|True|False|False||False||False
ARC_GIS_SNAP_QUERY|708|USDA Food and Nutrition Service|https://services1.arcgis.com/RLQu0rK7h4kbsBq5/arcgis/rest/services/Store_Locations/FeatureServer|185596|other|OU'S INTERNATIONAL COMPANY|705 Penn Ave|Wilkinsburg|PA|15221|ALLEGHENY||||40.44368|-79.884521|Arc_Gis|||||True|True|False|False|False|False|False||False||False
ARC_GIS_SNAP_QUERY|505|USDA Food and Nutrition Service|https://services1.arcgis.com/RLQu0rK7h4kbsBq5/arcgis/rest/services/Store_Locations/FeatureServer|128816|other|Penn Tobacco Outlet|705 Penn Ave|Turtle Creek|PA|15145|ALLEGHENY||||40.404949|-79.826088|Arc_Gis|||||True|True|False|False|False|False|False||False||False
WIC_WS_QUERY|61|PA WIC|https://www.pawic.com||supermarket|Shop N Save Holiday Park|2362 GOLDEN MILE HWY|PITTSBURGH|PA|15239|Allegheny||(724) 325-5400|http://maps.google.com?saddr=Current+Location&daddr=2362%20GOLDEN%20MILE%20HWY%20PITTSBURGH,%20PA%2015239-2710|40.46834|-79.70579|MapBox GeoCode|||||False|False|True|False|True|False|False||False||False
ARC_GIS_SNAP_QUERY|516|USDA Food and Nutrition Service|https://services1.arcgis.com/RLQu0rK7h4kbsBq5/arcgis/rest/services/Store_Locations/FeatureServer|132432|supermarket|HOLIDAY PARK SHOP N SAVE|2362 Golden Mile Hwy|Pittsburgh|PA|15239|ALLEGHENY||||40.462723|-79.705582|Arc_Gis|||||True|True|False|False|True|False|False||False||False
WIC_WS_QUERY|63|PA WIC|https://www.pawic.com||supermarket|Shop N Save Lawrenceville|450 56TH ST|PITTSBURGH|PA|15201|Allegheny||(412) 784-8701|http://maps.google.com?saddr=Current+Location&daddr=450%2056TH%20ST%20PITTSBURGH,%20PA%2015201-2322|40.48336|-79.94817|MapBox GeoCode|||||False|False|True|False|True|False|False||False||False
ARC_GIS_SNAP_QUERY|764|USDA Food and Nutrition Service|https://services1.arcgis.com/RLQu0rK7h4kbsBq5/arcgis/rest/services/Store_Locations/FeatureServer|203324|supermarket|Lawrenceville Shop N Save|450 56th St|Pittsburgh|PA|15201|ALLEGHENY||||40.483944|-79.947609|Arc_Gis|||||True|True|False|False|True|False|False||False||False
WIC_WS_QUERY|64|PA WIC|https://www.pawic.com||supermarket|Shop N Save Mckeesport|815 5TH AVE|MCKEESPORT|PA|15132|Allegheny||(412) 672-7820|http://maps.google.com?saddr=Current+Location&daddr=815%205TH%20AVE%20MCKEESPORT,%20PA%2015132-2509|40.351965|-79.85615|MapBox GeoCode|||||False|False|True|False|True|False|False||False||False
ARC_GIS_SNAP_QUERY|566|USDA Food and Nutrition Service|https://services1.arcgis.com/RLQu0rK7h4kbsBq5/arcgis/rest/services/Store_Locations/FeatureServer|142246|supermarket|Fifth Ave Shop N Save|815 5th Ave|McKeesport|PA|15132|ALLEGHENY||||40.351707|-79.855995|Arc_Gis|||||True|True|False|False|True|False|False||False||False
WIC_WS_QUERY|44|PA WIC|https://www.pawic.com||supermarket|Giant Eagle White Oak #600|2001 Lincoln Way|White Oak|PA|15131|Allegheny||(412) 664-3500|http://maps.google.com?saddr=Current+Location&daddr=2001%20Lincoln%20Way%20White%20Oak,%20PA%2015131|40.334645|-79.80336|MapBox GeoCode|||||False|False|True|False|True|False|False||False||False
ARC_GIS_SNAP_QUERY|569|USDA Food and Nutrition Service|https://services1.arcgis.com/RLQu0rK7h4kbsBq5/arcgis/rest/services/Store_Locations/FeatureServer|143790|supermarket|White Oak Giant Eagle|2001 Lincoln Way|White Oak|PA|15131|ALLEGHENY||||40.337402|-79.80867|Arc_Gis|||||True|True|False|False|True|False|False||False||False
Just Harvest Google Sheets|20|Just Harvest|Just Harvest Google Sheets||other|Braddock Farm Stand|1000 Braddock Ave|Braddock|PA|15104|Allegheny|June 1st-October 26th<br/>Saturdays10am-2pm|||40.43396|-79.89527|MapBox GeoCode|June 1st|October 26th|||True|True|True|True|True|False|False||False||False
ARC_GIS_SNAP_QUERY|649|USDA Food and Nutrition Service|https://services1.arcgis.com/RLQu0rK7h4kbsBq5/arcgis/rest/services/Store_Locations/FeatureServer|164527|other|Grow Pittsburgh Farm Stands|1000 Braddock Ave|Braddock|PA|15104|ALLEGHENY||||40.399052|-79.863136|Arc_Gis|||||True|True|False|False|False|False|False||False||False
WIC_WS_QUERY|73|PA WIC|https://www.pawic.com||supermarket|Wal-Mart #2281 West Mifflin|2351 Century Dr|West Mifflin|PA|15122|Allegheny||(412) 655-3404|http://maps.google.com?saddr=Current+Location&daddr=2351%20Century%20Dr%20West%20Mifflin,%20PA%2015122-2498|40.342055|-79.94575|MapBox GeoCode|||||False|False|True|False|True|False|False||False||False
ARC_GIS_SNAP_QUERY|684|USDA Food and Nutrition Service|https://services1.arcgis.com/RLQu0rK7h4kbsBq5/arcgis/rest/services/Store_Locations/FeatureServer|176416|supermarket|Walmart Supercenter 2281|2351 Century Dr|West Mifflin|PA|15122|ALLEGHENY||||40.343925|-79.943527|Arc_Gis|||||True|True|False|False|True|False|False||False||False
WIC_WS_QUERY|55|PA WIC|https://www.pawic.com||supermarket|Route 8 Shop-N-Save|5375 WILLIAM FLYNN HWY|GIBSONIA|PA|15044|Allegheny||(724) 443-8420|http://maps.google.com?saddr=Current+Location&daddr=5375%20WILLIAM%20FLYNN%20HWY%20GIBSONIA,%20PA%2015044-9666|40.619795|-79.946777|MapBox GeoCode|||||False|False|True|False|True|False|False||False||False
ARC_GIS_SNAP_QUERY|691|USDA Food and Nutrition Service|https://services1.arcgis.com/RLQu0rK7h4kbsBq5/arcgis/rest/services/Store_Locations/FeatureServer|178476|supermarket|Route 8 Shop N Save|5375 William Flynn Hwy|Gibsonia|PA|15044|ALLEGHENY||||40.619602|-79.944672|Arc_Gis|||||True|True|False|False|True|False|False||False||False
WIC_WS_QUERY|71|PA WIC|https://www.pawic.com||supermarket|Sliva's Village Shop N Save|1886 Homeville Rd|West Mifflin|PA|15122|Allegheny||(412) 466-1112|http://maps.google.com?saddr=Current+Location&daddr=1886%20Homeville%20Rd%20West%20Mifflin,%20PA%2015122-3650|40.36586|-79.87093|MapBox GeoCode|||||False|False|True|False|True|False|False||False||False
ARC_GIS_SNAP_QUERY|701|USDA Food and Nutrition Service|https://services1.arcgis.com/RLQu0rK7h4kbsBq5/arcgis/rest/services/Store_Locations/FeatureServer|183459|supermarket|Slivas Village Shop N Save|1886 Homeville Rd|West Mifflin|PA|15122|ALLEGHENY||||40.365013|-79.872261|Arc_Gis|||||True|True|False|False|True|False|False||False||False
WIC_WS_QUERY|22|PA WIC|https://www.pawic.com||supermarket|Giant Eagle Crafton #646|51 WALSH RD|PITTSBURGH|PA|15205|Allegheny||(412) 921-4504|http://maps.google.com?saddr=Current+Location&daddr=51%20WALSH%20RD%20PITTSBURGH,%20PA%2015205-2336|40.424255|-79.987242|MapBox GeoCode|||||False|False|True|False|True|False|False||False||False
ARC_GIS_SNAP_QUERY|765|USDA Food and Nutrition Service|https://services1.arcgis.com/RLQu0rK7h4kbsBq5/arcgis/rest/services/Store_Locations/FeatureServer|203334|supermarket|GIANT EAGLE 646|51 Walsh Rd|CRAFTON|PA|15205|ALLEGHENY||||40.439888|-80.070869|Arc_Gis|||||True|True|False|False|True|False|False||False||False
WIC_WS_QUERY|33|PA WIC|https://www.pawic.com||supermarket|Giant Eagle Monroeville #60|4010 MONROEVILLE BLVD|MONROEVILLE|PA|15146|Allegheny||(412) 372-1220|http://maps.google.com?saddr=Current+Location&daddr=4010%20MONROEVILLE%20BLVD%20MONROEVILLE,%20PA%2015146-2506|40.43219|-79.77217|MapBox GeoCode|||||False|False|True|False|True|False|False||False||False
ARC_GIS_SNAP_QUERY|767|USDA Food and Nutrition Service|https://services1.arcgis.com/RLQu0rK7h4kbsBq5/arcgis/rest/services/Store_Locations/FeatureServer|204121|supermarket|Giant Eagle 60|4010 Monroeville Blvd|Monroeville|PA|15146|ALLEGHENY||||40.435871|-79.771606|Arc_Gis|||||True|True|False|False|True|False|False||False||False
WIC_WS_QUERY|23|PA WIC|https://www.pawic.com||supermarket|Giant Eagle Edgewood #1619|1705 S BRADDOCK AVE|PITTSBURGH|PA|15218|Allegheny||(412) 371-4614|http://maps.google.com?saddr=Current+Location&daddr=1705%20S%20BRADDOCK%20AVE%20PITTSBURGH,%20PA%2015218-1865|40.42416|-79.88769|MapBox GeoCode|||||False|False|True|False|True|False|False||False||False
ARC_GIS_SNAP_QUERY|770|USDA Food and Nutrition Service|https://services1.arcgis.com/RLQu0rK7h4kbsBq5/arcgis/rest/services/Store_Locations/FeatureServer|204778|supermarket|Edgewood Giant Eagle 1619|1705 S Braddock Ave|Pittsburgh|PA|15218|ALLEGHENY||||40.427151|-79.886116|Arc_Gis|||||True|True|False|False|True|False|False||False||False
WIC_WS_QUERY|56|PA WIC|https://www.pawic.com||supermarket|Save-A-Lot|725 ROSS AVE|PITTSBURGH|PA|15221|Allegheny||(412) 242-3204|http://maps.google.com?saddr=Current+Location&daddr=725%20ROSS%20AVE%20PITTSBURGH,%20PA%2015221-2328|40.44275|-79.884057|MapBox GeoCode|||||False|False|True|False|True|False|False||False||False
ARC_GIS_SNAP_QUERY|776|USDA Food and Nutrition Service|https://services1.arcgis.com/RLQu0rK7h4kbsBq5/arcgis/rest/services/Store_Locations/FeatureServer|206760|supermarket|Save-a-lot|725 Ross Ave|Pittsburgh|PA|15221|ALLEGHENY||||40.442791|-79.884163|Arc_Gis|||||True|True|False|False|True|False|False||False||False
WIC_WS_QUERY|16|PA WIC|https://www.pawic.com||supermarket|Giant Eagle #93 Brentwood|600 TOWNE SQUARE WAY|PITTSBURGH|PA|15227|Allegheny||(412) 881-4075|http://maps.google.com?saddr=Current+Location&daddr=600%20TOWNE%20SQUARE%20WAY%20PITTSBURGH,%20PA%2015227-3257|40.366275|-79.98304|MapBox GeoCode|||||False|False|True|False|True|False|False||False||False
ARC_GIS_SNAP_QUERY|823|USDA Food and Nutrition Service|https://services1.arcgis.com/RLQu0rK7h4kbsBq5/arcgis/rest/services/Store_Locations/FeatureServer|219015|supermarket|Giant Eagle 93|600 Towne Square Way|Pittsburgh|PA|15227|ALLEGHENY||||40.367905|-79.982513|Arc_Gis|||||True|True|False|False|True|False|False||False||False
WIC_WS_QUERY|2|PA WIC|https://www.pawic.com||supermarket|Community Market #96 Bloomfield|4401 LIBERTY AVE|PITTSBURGH|PA|15224|Allegheny||(412) 621-2511|http://maps.google.com?saddr=Current+Location&daddr=4401%20LIBERTY%20AVE%20PITTSBURGH,%20PA%2015224-1561|40.463955|-79.9522|MapBox GeoCode|||||False|False|True|False|True|False|False||False||False
ARC_GIS_SNAP_QUERY|862|USDA Food and Nutrition Service|https://services1.arcgis.com/RLQu0rK7h4kbsBq5/arcgis/rest/services/Store_Locations/FeatureServer|228933|supermarket|Community Market Bloomfield 96|4401 Liberty Ave|Pittsburgh|PA|15224|ALLEGHENY||||40.464138|-79.952065|Arc_Gis|||||True|True|False|False|True|False|False||False||False
Just Harvest Google Sheets|1|Just Harvest|Just Harvest Google Sheets||farmer's market|Belllevue Farmers Market|34 N Balph Ave|Bellevue|PA|15202|Allegheny|June 5th-October 30th<br/>Wednesdays 3pm-7pm|||40.496305|-80.0541|MapBox GeoCode|June 5th|October 30th|||True|True|True|True|True|False|False||False||False
ARC_GIS_SNAP_QUERY|898|USDA Food and Nutrition Service|https://services1.arcgis.com/RLQu0rK7h4kbsBq5/arcgis/rest/services/Store_Locations/FeatureServer|239749|farmer's market|Bellevue Farmers Market|34 N Balph Ave|Pittsburgh|PA|15202|ALLEGHENY||||40.496513|-80.054329|Arc_Gis|||||True|True|True|True|True|False|False||False||False
Just Harvest Google Sheets|8|Just Harvest|Just Harvest Google Sheets||farmer's market|Homewood Farmers Market|7139 Fransktown Ave|Pittsburgh|PA|15208|Allegheny|July 3rd-July 31st<br/>Wednedays 3pm-5:30pm|||40.45776|-79.89681|MapBox GeoCode|July 3rd|July 31st|||True|True|True|True|True|False|False||False||False
Just Harvest Google Sheets|7|Just Harvest|Just Harvest Google Sheets||farmer's market|Homewood Farmers Market|7139 Fransktown Ave|Pittsburgh|PA|15208|Allegheny|July 27th-October 26th<br/>Last Saturdays 3pm-7pm|||40.45776|-79.89681|MapBox GeoCode|July 27th|October 26th|||True|True|True|True|True|False|False||False||False
ARC_GIS_GPCFB_QUERY|123|Greater Pittsburgh Community Food Bank|https://services5.arcgis.com/n3KaqXoFYDuIhfyz/ArcGIS/rest/services/FMNPMarkets/FeatureServer|94cf5ef9-545b-4a1a-8dcd-cf3a2dcc6c48|food bank site|Arlington Recreation Center|2201 Salisbury Street|Pittsburgh|PA|15210||Population Served: Available to all children up to 18 years old, as well as intellectually disabled individuals up to 21 years old.<br/>Site Info: (none)<br/>Time: Mondays, Wednesdays and Fridays from 9:30 am - 1:30 pm<br/>Additional Info: Grab 'n Go meal and snack distribution for children.||https://pittsburghpa.gov/press-releases/press-releases/4266|40.41928492270767|-79.97539543157417|Arc_GIS|||students||False|False|False|False|False|True|False||False||False
ARC_GIS_GPCFB_QUERY|19|Greater Pittsburgh Community Food Bank|https://services5.arcgis.com/n3KaqXoFYDuIhfyz/ArcGIS/rest/services/FMNPMarkets/FeatureServer|19c1ae2e-d54b-463d-9897-a532c39bfbc4|food bank site|Arlington Meals on Wheels|2201 Salisbury Street|Pittsburgh|PA|15210||Population Served: Contact for more details<br/>Additional Info: Volunteers deliver free meals to senior citizens, the disabled, and homebound.|412-381-7727||40.419228691079994|-79.97544088961517|Arc_GIS|||senior_citizens||False|False|False|False|False|True|False||False||False
ARC_GIS_GPCFB_QUERY|110|Greater Pittsburgh Community Food Bank|https://services5.arcgis.com/n3KaqXoFYDuIhfyz/ArcGIS/rest/services/FMNPMarkets/FeatureServer|e93815f2-845f-4c73-8621-88f60808d334|food bank site|Community Empowerment Association|7120 Kelly Street|Pittsburgh|PA|15208||Population Served: Available to all children up to 18 years old, as well as intellectually disabled individuals up to 21 years old.<br/>Site Info: (none)<br/>Time: Mondays, Wednesdays and Fridays from 11:00 am - 1:00 pm<br/>Additional Info: Grab 'n Go meal and snack distribution for children.||https://pittsburghpa.gov/citiparks/summer-food-service-program|40.45550399999998|-79.89812549999999|Arc_GIS|||students||False|False|False|False|False|True|False||False||False
ARC_GIS_GPCFB_QUERY|84|Greater Pittsburgh Community Food Bank|https://services5.arcgis.com/n3KaqXoFYDuIhfyz/ArcGIS/rest/services/FMNPMarkets/FeatureServer|b036cf68-aa11-4035-8740-541a1843954a|food bank site|Community Empowerment Association|7120 Kelly Street|Pittsburgh|PA|15208||Population Served: Focused on families with infants or toddlers.<br/>Site Info: Location is closed to the public. Call ahead for availability.<br/>Time: Supplies are limited. Call ahead for availability.<br/>Additional Info: This location has access to diapers, wipes and formula.|(412) 371-3689|https://ceapittsburgh.org/|40.45550399999998|-79.89812549999999|Arc_GIS|||family_support||False|False|False|False|False|True|False||False||False
