file_name|id|source_org|source_file|original_id|type|name|address|city|state|zip_code|county|location_description|phone|url|latitude|longitude|latlng_source|date_from|date_to|open_to_spec_group|data_issues|food_bucks|snap|wic|fmnp|fresh_produce|free_distribution|food_rx|group_id|merged_record|timestamp|in_error|active_record
ARC_GIS_GPCFB_QUERY|123|Greater Pittsburgh Community Food Bank|https://services5.arcgis.com/n3KaqXoFYDuIhfyz/ArcGIS/rest/services/FMNPMarkets/FeatureServer|94cf5ef9-545b-4a1a-8dcd-cf3a2dcc6c48|food bank site|Arlington Recreation Center|2201 Salisbury Street|Pittsburgh|PA|15210||Population Served: Available to all children up to 18 years old, as well as intellectually disabled individuals up to 21 years old.<br/>Site Info: (none)<br/>Time: Mondays, Wednesdays and Fridays from 9:30 am - 1:30 pm<br/>Additional Info: Grab 'n Go meal and snack distribution for children.||https://pittsburghpa.gov/press-releases/press-releases/4266|40.41928492270767|-79.97539543157417|Arc_GIS|||students||False|False|False|False|False|True|False||False||False|True
ARC_GIS_GPCFB_QUERY|19|Greater Pittsburgh Community Food Bank|https://services5.arcgis.com/n3KaqXoFYDuIhfyz/ArcGIS/rest/services/FMNPMarkets/FeatureServer|19c1ae2e-d54b-463d-9897-a532c39bfbc4|food bank site|Arlington Meals on Wheels|2201 Salisbury Street|Pittsburgh|PA|15210||Population Served: Contact for more details<br/>Additional Info: Volunteers deliver free meals to senior citizens, the disabled, and homebound.|412-381-7727||40.419228691079994|-79.97544088961517|Arc_GIS|||senior_citizens||False|False|False|False|False|True|False||False||False|True
ARC_GIS_GPCFB_QUERY|110|Greater Pittsburgh Community Food Bank|https://services5.arcgis.com/n3KaqXoFYDuIhfyz/ArcGIS/rest/services/FMNPMarkets/FeatureServer|e93815f2-845f-4c73-8621-88f60808d334|food bank site|Community Empowerment Association|7120 Kelly Street|Pittsburgh|PA|15208||Population Served: Available to all children up to 18 years old, as well as intellectually disabled individuals up to 21 years old.<br/>Site Info: (none)<br/>Time: Mondays, Wednesdays and Fridays from 11:00 am - 1:00 pm<br/>Additional Info: Grab 'n Go meal and snack distribution for children.||https://pittsburghpa.gov/citiparks/summer-food-service-program|40.45550399999998|-79.89812549999999|Arc_GIS|||students||False|False|False|False|False|True|False||False||False|True
ARC_GIS_GPCFB_QUERY|84|Greater Pittsburgh Community Food Bank|https://services5.arcgis.com/n3KaqXoFYDuIhfyz/ArcGIS/rest/services/FMNPMarkets/FeatureServer|b036cf68-aa11-4035-8740-541a1843954a|food bank site|Community Empowerment Association|7120 Kelly Street|Pittsburgh|PA|15208||Population Served: Focused on families with infants or toddlers.<br/>Site Info: Location is closed to the public. Call ahead for availability.<br/>Time: Supplies are limited. Call ahead for availability.<br/>Additional Info: This location has access to diapers, wipes and formula.|(412) 371-3689|https://ceapittsburgh.org/|40.45550399999998|-79.89812549999999|Arc_GIS|||family_support||False|False|False|False|False|True|False||False||False|True
ARC_GIS_SUMMER_MEAL_QUERY|30|Allegheny County|https://services1.arcgis.com/vdNDkVykv9vEWFX4/arcgis/rest/services/Child_Nutrition/FeatureServer|0|summer meal site|Brashear High School|590 Crane Avenue|Pittsburgh|PA|15216|Allegheny|Site Hours: Monday through Friday this site serves breakfast and lunch from 9:30-10:30 am.<br/>|||40.4169833196409|-80.0183737650599|Arc_Gis|||children and teens 18 and younger||False|False|False|False|False|True|False||False||False|True
ARC_GIS_SUMMER_MEAL_QUERY|7|Allegheny County|https://services1.arcgis.com/vdNDkVykv9vEWFX4/arcgis/rest/services/Child_Nutrition/FeatureServer|0|summer meal site|Brashear High School|590 Crane Avenue|Pittsburgh|PA|15216|Allegheny|Service Type: Grab and Go<br/>Site Hours: Call the school at (412) 529-4160 for updated meal service times.<br/>|||40.4169833196409|-80.0183737650599|Arc_Gis|||children and teens 18 and younger||False|False|False|False|False|True|False||False||False|True
ARC_GIS_SUMMER_MEAL_QUERY|31|Allegheny County|https://services1.arcgis.com/vdNDkVykv9vEWFX4/arcgis/rest/services/Child_Nutrition/FeatureServer|0|summer meal site|South Hills Middle School|595 Crane Avenue|Pittsburgh|PA|15216|Allegheny|Site Hours: Monday through Friday this site serves breakfast and lunch from 9:30-10:30 am.<br/>|||40.4194589985625|-80.0181880220856|Arc_Gis|||children and teens 18 and younger||False|False|False|False|False|True|False||False||False|True
ARC_GIS_SUMMER_MEAL_QUERY|8|Allegheny County|https://services1.arcgis.com/vdNDkVykv9vEWFX4/arcgis/rest/services/Child_Nutrition/FeatureServer|0|summer meal site|South Hills Middle School|595 Crane Avenue|Pittsburgh|PA|15216|Allegheny|Service Type: Grab and Go<br/>Site Hours: Call the school at (412) 529-8130 for updated meal service times.<br/>|||40.4194589985625|-80.0181880220856|Arc_Gis|||children and teens 18 and younger||False|False|False|False|False|True|False||False||False|True
ARC_GIS_SUMMER_MEAL_QUERY|32|Allegheny County|https://services1.arcgis.com/vdNDkVykv9vEWFX4/arcgis/rest/services/Child_Nutrition/FeatureServer|0|summer meal site|Spring Garden Early Childhood Center|1501 Spring Garden Avenue|Pittsburgh|PA|15212|Allegheny|Site Hours: Monday through Friday this site serves breakfast and lunch from 10:30-11:30 am.<br/>|||40.4644558208363|-79.9858055449955|Arc_Gis|||children and teens 18 and younger||False|False|False|False|False|True|False||False||False|True
ARC_GIS_SUMMER_MEAL_QUERY|9|Allegheny County|https://services1.arcgis.com/vdNDkVykv9vEWFX4/arcgis/rest/services/Child_Nutrition/FeatureServer|0|summer meal site|Spring Garden Early Childhood Center|1501 Spring Garden Avenue|Pittsburgh|PA|15212|Allegheny|Service Type: Grab and Go<br/>Site Hours: Call the school at (412) 529-4591 for updated meal service times.<br/>|||40.4644558208363|-79.9858055449955|Arc_Gis|||children and teens 18 and younger||False|False|False|False|False|True|False||False||False|True
ARC_GIS_SUMMER_MEAL_QUERY|23|Allegheny County|https://services1.arcgis.com/vdNDkVykv9vEWFX4/arcgis/rest/services/Child_Nutrition/FeatureServer|0|summer meal site|Oliver High School|2323 Brighton Road|Pittsburgh|PA|15212|Allegheny|Site Hours: Monday through Friday this site serves breakfast and lunch from 9:45-10:45 am.<br/>|||40.4648653606254|-80.0241136085355|Arc_Gis|||children and teens 18 and younger||False|False|False|False|False|True|False||False||False|True
ARC_GIS_SUMMER_MEAL_QUERY|10|Allegheny County|https://services1.arcgis.com/vdNDkVykv9vEWFX4/arcgis/rest/services/Child_Nutrition/FeatureServer|0|summer meal site|Oliver High School|2323 Brighton Road|Pittsburgh|PA|15212|Allegheny|Service Type: Grab and Go<br/>Site Hours: Call the school at (412) 529-3125 for updated meal service times.<br/>|||40.4648653606254|-80.0241136085355|Arc_Gis|||children and teens 18 and younger||False|False|False|False|False|True|False||False||False|True
ARC_GIS_SUMMER_MEAL_QUERY|24|Allegheny County|https://services1.arcgis.com/vdNDkVykv9vEWFX4/arcgis/rest/services/Child_Nutrition/FeatureServer|0|summer meal site|Conroy Education Center|1398 Page Street|Pittsburgh|PA|15233|Allegheny|Site Hours: Monday through Friday this site serves breakfast and lunch from 9:45-10:45 am.<br/>|||40.4514753122123|-80.0246920436736|Arc_Gis|||children and teens 18 and younger||False|False|False|False|False|True|False||False||False|True
ARC_GIS_SUMMER_MEAL_QUERY|11|Allegheny County|https://services1.arcgis.com/vdNDkVykv9vEWFX4/arcgis/rest/services/Child_Nutrition/FeatureServer|0|summer meal site|Conroy Education Center|1398 Page Street|Pittsburgh|PA|15233|Allegheny|Service Type: Grab and Go<br/>Site Hours: Call the school at (412) 529-3105 for updated meal service times.<br/>|||40.4514753122123|-80.0246920436736|Arc_Gis|||children and teens 18 and younger||False|False|False|False|False|True|False||False||False|True
ARC_GIS_SUMMER_MEAL_QUERY|35|Allegheny County|https://services1.arcgis.com/vdNDkVykv9vEWFX4/arcgis/rest/services/Child_Nutrition/FeatureServer|0|summer meal site|Langley K-8|2940 Sheraden Blvd|Pittsburgh|PA|15204|Allegheny|Site Hours: Monday through Friday this site serves breakfast and lunch from 9:30-10:30 am.<br/>|||40.4546162208796|-80.0540851988151|Arc_Gis|||children and teens 18 and younger||False|False|False|False|False|True|False||False||False|True
ARC_GIS_SUMMER_MEAL_QUERY|12|Allegheny County|https://services1.arcgis.com/vdNDkVykv9vEWFX4/arcgis/rest/services/Child_Nutrition/FeatureServer|0|summer meal site|Langley K-8|2940 Sheraden Blvd|Pittsburgh|PA|15204|Allegheny|Service Type: Grab and Go<br/>Site Hours: Call the school at (412) 529-2100 for updated meal service times.<br/>|||40.4546162208796|-80.0540851988151|Arc_Gis|||children and teens 18 and younger||False|False|False|False|False|True|False||False||False|True
ARC_GIS_SUMMER_MEAL_QUERY|26|Allegheny County|https://services1.arcgis.com/vdNDkVykv9vEWFX4/arcgis/rest/services/Child_Nutrition/FeatureServer|0|summer meal site|Westinghouse Academy|1101 North Murtland Street|Pittsburgh|PA|15208|Allegheny|Site Hours: Monday through Friday this site serves breakfast and lunch from 9:30-10:30 am.<br/>|||40.4606358941928|-79.9003167543098|Arc_Gis|||children and teens 18 and younger||False|False|False|False|False|True|False||False||False|True
ARC_GIS_SUMMER_MEAL_QUERY|13|Allegheny County|https://services1.arcgis.com/vdNDkVykv9vEWFX4/arcgis/rest/services/Child_Nutrition/FeatureServer|0|summer meal site|Westinghouse Academy|1101 North Murtland Street|Pittsburgh|PA|15208|Allegheny|Service Type: Grab and Go<br/>Site Hours: Call the school at (412) 529-3940 for updated meal service times.<br/>|||40.4606358941928|-79.9003167543098|Arc_Gis|||children and teens 18 and younger||False|False|False|False|False|True|False||False||False|True
ARC_GIS_SUMMER_MEAL_QUERY|27|Allegheny County|https://services1.arcgis.com/vdNDkVykv9vEWFX4/arcgis/rest/services/Child_Nutrition/FeatureServer|0|summer meal site|Obama Academy|515 North Highland Avenue|Pittsburgh|PA|15206|Allegheny|Site Hours: Monday through Friday this site serves breakfast and lunch from 10-11am.<br/>|||40.4669320864915|-79.9223150591936|Arc_Gis|||children and teens 18 and younger||False|False|False|False|False|True|False||False||False|True
ARC_GIS_SUMMER_MEAL_QUERY|14|Allegheny County|https://services1.arcgis.com/vdNDkVykv9vEWFX4/arcgis/rest/services/Child_Nutrition/FeatureServer|0|summer meal site|Obama Academy|515 North Highland Avenue|Pittsburgh|PA|15206|Allegheny|Service Type: Grab and Go<br/>Site Hours: Call the school at (412) 529-5980 for updated meal service times.<br/>|||40.4669320864915|-79.9223150591936|Arc_Gis|||children and teens 18 and younger||False|False|False|False|False|True|False||False||False|True
ARC_GIS_SUMMER_MEAL_QUERY|28|Allegheny County|https://services1.arcgis.com/vdNDkVykv9vEWFX4/arcgis/rest/services/Child_Nutrition/FeatureServer|0|summer meal site|Minadeo Elementary School|6502 Lilac Street|Pittsburgh|PA|15217|Allegheny|Site Hours: Monday through Friday this site serves breakfast and lunch from 9:30-10:30 am.<br/>|||40.4231456529457|-79.925689697231|Arc_Gis|||children and teens 18 and younger||False|False|False|False|False|True|False||False||False|True
ARC_GIS_SUMMER_MEAL_QUERY|15|Allegheny County|https://services1.arcgis.com/vdNDkVykv9vEWFX4/arcgis/rest/services/Child_Nutrition/FeatureServer|0|summer meal site|Minadeo Elementary School|6502 Lilac Street|Pittsburgh|PA|15217|Allegheny|Service Type: Grab and Go<br/>Site Hours: Call the school at (412) 529-4291 for updated meal service times.<br/>|||40.4231456529457|-79.925689697231|Arc_Gis|||children and teens 18 and younger||False|False|False|False|False|True|False||False||False|True
ARC_GIS_SUMMER_MEAL_QUERY|29|Allegheny County|https://services1.arcgis.com/vdNDkVykv9vEWFX4/arcgis/rest/services/Child_Nutrition/FeatureServer|0|summer meal site|Carmalt Academy of Science and Tech|1550 Breining Street|Pittsburgh|PA|15234|Allegheny|Site Hours: Monday through Friday this site serves breakfast and lunch from 9:30-10:30 am.<br/>|||40.3883917678092|-80.0067275296928|Arc_Gis|||children and teens 18 and younger||False|False|False|False|False|True|False||False||False|True
ARC_GIS_SUMMER_MEAL_QUERY|18|Allegheny County|https://services1.arcgis.com/vdNDkVykv9vEWFX4/arcgis/rest/services/Child_Nutrition/FeatureServer|0|summer meal site|Carmalt Academy of Science and Tech|1550 Breining Street|Pittsburgh|PA|15234|Allegheny|Service Type: Grab and Go<br/>Site Hours: Call the school at (412) 529-7760 for updated meal service times.<br/>|||40.3883917678092|-80.0067275296928|Arc_Gis|||children and teens 18 and younger||False|False|False|False|False|True|False||False||False|True
ARC_GIS_SUMMER_MEAL_QUERY|33|Allegheny County|https://services1.arcgis.com/vdNDkVykv9vEWFX4/arcgis/rest/services/Child_Nutrition/FeatureServer|0|summer meal site|Weil Elementary School|2250 Centre Avenue|Pittsburgh|PA|15219|Allegheny|Site Hours: Monday through Friday this site serves breakfast and lunch from 9:30-10:30 am.<br/>|||40.4451812153891|-79.974002400401|Arc_Gis|||children and teens 18 and younger||False|False|False|False|False|True|False||False||False|True
ARC_GIS_SUMMER_MEAL_QUERY|20|Allegheny County|https://services1.arcgis.com/vdNDkVykv9vEWFX4/arcgis/rest/services/Child_Nutrition/FeatureServer|0|summer meal site|Weil Elementary School|2250 Centre Avenue|Pittsburgh|PA|15219|Allegheny|Service Type: Grab and Go<br/>Site Hours: Call the school at  (412) 529-3840 for updated meal service times.<br/>|||40.4451812153891|-79.974002400401|Arc_Gis|||children and teens 18 and younger||False|False|False|False|False|True|False||False||False|True
ARC_GIS_SUMMER_MEAL_QUERY|34|Allegheny County|https://services1.arcgis.com/vdNDkVykv9vEWFX4/arcgis/rest/services/Child_Nutrition/FeatureServer|0|summer meal site|Pittsburgh Science & Technology Academy|107 Thackeray Avenue|Pittsburgh|PA|15260|Allegheny|Site Hours: Monday through Friday this site serves breakfast and lunch from 9:30-10:30 am.<br/>|||40.4438208325038|-79.9574247561197|Arc_Gis|||children and teens 18 and younger||False|False|False|False|False|True|False||False||False|True
ARC_GIS_SUMMER_MEAL_QUERY|21|Allegheny County|https://services1.arcgis.com/vdNDkVykv9vEWFX4/arcgis/rest/services/Child_Nutrition/FeatureServer|0|summer meal site|Pittsburgh Science & Technology Academy|107 Thackeray Avenue|Pittsburgh|PA|15260|Allegheny|Service Type: Grab and Go<br/>Site Hours: Call the school at (412) 529-7620 for updated meal service times.<br/>|||40.4438208325038|-79.9574247561197|Arc_Gis|||children and teens 18 and younger||False|False|False|False|False|True|False||False||False|True
ARC_GIS_SNAP_QUERY|723|USDA Food and Nutrition Service|https://services1.arcgis.com/RLQu0rK7h4kbsBq5/arcgis/rest/services/Store_Locations/FeatureServer|208042|convenience store|DOLLARTREE 8087|1122 Milltown Rd|Verona|PA|15147|ALLEGHENY||||40.499241|-79.789886|Arc_Gis|||||True|True|False|False|False|False|False||False||False|True
ARC_GIS_SNAP_QUERY|1|USDA Food and Nutrition Service|https://services1.arcgis.com/RLQu0rK7h4kbsBq5/arcgis/rest/services/Store_Locations/FeatureServer|51|convenience store|Family Dollar 8406|1122 Milltown Rd|Verona|PA|15147|ALLEGHENY||||40.499241|-79.789886|Arc_Gis|||||True|True|False|False|False|False|False||False||False|True
WIC_WS_QUERY|7|PA WIC|https://www.pawic.com||supermarket|Community Supermarket Verona|1117 Milltown Rd|Verona|PA|15147|Allegheny||(412) 793-4020|http://maps.google.com?saddr=Current+Location&daddr=1117%20Milltown%20Rd%20Verona,%20PA%2015147-3798|40.498488|-79.790579|MapBox GeoCode|||||False|False|True|False|True|False|False||False||False|True
ARC_GIS_SNAP_QUERY|5|USDA Food and Nutrition Service|https://services1.arcgis.com/RLQu0rK7h4kbsBq5/arcgis/rest/services/Store_Locations/FeatureServer|55|supermarket|COMMUNITY SUPER MKT INC|1117 Milltown Rd|Verona|PA|15147|ALLEGHENY||||40.498421|-79.789978|Arc_Gis|||||True|True|False|False|True|False|False||False||False|True
WIC_WS_QUERY|48|PA WIC|https://www.pawic.com||supermarket|Giant Eagle Verona #695|200 ALLEGHENY RIVER BLVD|VERONA|PA|15147|Allegheny||(412) 828-1271|http://maps.google.com?saddr=Current+Location&daddr=200%20ALLEGHENY%20RIVER%20BLVD%20VERONA,%20PA%2015147-1053|40.499259|-79.844413|MapBox GeoCode|||||False|False|True|False|True|False|False||False||False|True
ARC_GIS_SNAP_QUERY|9|USDA Food and Nutrition Service|https://services1.arcgis.com/RLQu0rK7h4kbsBq5/arcgis/rest/services/Store_Locations/FeatureServer|59|supermarket|VERONA GIANT EAGLE|200 Allegheny River Blvd|Verona|PA|15147|ALLEGHENY||||40.500896|-79.843269|Arc_Gis|||||True|True|False|False|True|False|False||False||False|True
WIC_WS_QUERY|20|PA WIC|https://www.pawic.com||supermarket|Giant Eagle #0065|4110 BRIGHTON RD|PITTSBURGH|PA|15212|Allegheny||(412) 761-2240|http://maps.google.com?saddr=Current+Location&daddr=4110%20BRIGHTON%20RD%20PITTSBURGH,%20PA%2015212-1573|40.489242|-80.044226|MapBox GeoCode|||||False|False|True|False|True|False|False||False||False|True
ARC_GIS_SNAP_QUERY|48|USDA Food and Nutrition Service|https://services1.arcgis.com/RLQu0rK7h4kbsBq5/arcgis/rest/services/Store_Locations/FeatureServer|8184|supermarket|Giant Eagle 65|4110 Brighton Rd|Pittsburgh|PA|15212|ALLEGHENY||||40.489925|-80.043709|Arc_Gis|||||True|True|False|False|True|False|False||False||False|True
Just Harvest Google Sheets|20|Just Harvest|Just Harvest Google Sheets||other|Braddock Farm Stand|1000 Braddock Ave|Braddock|PA|15104|Allegheny|June 1st-October 26th<br/>Saturdays10am-2pm|||40.399032|-79.863302|MapBox GeoCode|June 1st|October 26th|||True|True|True|True|True|False|False||False||False|True
ARC_GIS_SNAP_QUERY|52|USDA Food and Nutrition Service|https://services1.arcgis.com/RLQu0rK7h4kbsBq5/arcgis/rest/services/Store_Locations/FeatureServer|12189|other|Grow Pittsburgh Farm Stands|1000 Braddock Ave|Braddock|PA|15104|ALLEGHENY||||40.399052|-79.863136|Arc_Gis|||||True|True|False|False|False|False|False||False||False|True
WIC_WS_QUERY|30|PA WIC|https://www.pawic.com||supermarket|Giant Eagle #24|3239 WASHINGTON PIKE|BRIDGEVILLE|PA|15017|Allegheny||(412) 914-0751|http://maps.google.com?saddr=Current+Location&daddr=3239%20WASHINGTON%20PIKE%20BRIDGEVILLE,%20PA%2015017-1460|40.340947|-80.118448|MapBox GeoCode|||||False|False|True|False|True|False|False||False||False|True
ARC_GIS_SNAP_QUERY|78|USDA Food and Nutrition Service|https://services1.arcgis.com/RLQu0rK7h4kbsBq5/arcgis/rest/services/Store_Locations/FeatureServer|13514|supermarket|Giant Eagle 24|3239 Washington Pike|Bridgeville|PA|15017|ALLEGHENY||||40.341564|-80.119629|Arc_Gis|||||True|True|False|False|True|False|False||False||False|True
ARC_GIS_SNAP_QUERY|0|USDA Food and Nutrition Service|https://services1.arcgis.com/RLQu0rK7h4kbsBq5/arcgis/rest/services/Store_Locations/FeatureServer|b098b01e-6120-4c94-bdd8-838b5cde46b5|supermarket|Giant Eagle #24|3239 WASHINGTON PIKE|BRIDGEVILLE|PA|15017|Allegheny||(412) 914-0751|http://maps.google.com?saddr=Current+Location&daddr=3239%20WASHINGTON%20PIKE%20BRIDGEVILLE,%20PA%2015017-1460|40.341564|-80.119629|MapBox GeoCode|||||True|True|True|False|True|False|False|30;78|True||False|True
ARC_GIS_SNAP_QUERY|71|USDA Food and Nutrition Service|https://services1.arcgis.com/RLQu0rK7h4kbsBq5/arcgis/rest/services/Store_Locations/FeatureServer|13381|supermarket|Giant Eagle Mobile Market 1270|3239 Washington Pike|Bridgeville|PA|15017|ALLEGHENY||||40.340958|-80.118401|Arc_Gis|||||True|True|False|False|True|False|False||False||False|True
WIC_WS_QUERY|26|PA WIC|https://www.pawic.com||supermarket|Giant Eagle #1241|1025 Washington Pike|Bridgeville|PA|15017|Allegheny||(412) 221-1422|http://maps.google.com?saddr=Current+Location&daddr=1025%20Washington%20Pike%20Bridgeville,%20PA%2015017|40.366453|-80.108374|MapBox GeoCode|||||False|False|True|False|True|False|False||False||False|True
ARC_GIS_SNAP_QUERY|757|USDA Food and Nutrition Service|https://services1.arcgis.com/RLQu0rK7h4kbsBq5/arcgis/rest/services/Store_Locations/FeatureServer|214076|supermarket|Bridgeville Giant Eagle 1241|1025 Washington Pike|Bridgeville|PA|15017|ALLEGHENY||||40.364407|-80.110413|Arc_Gis|||||True|True|False|False|True|False|False||False||False|True
ARC_GIS_SNAP_QUERY|0|USDA Food and Nutrition Service|https://services1.arcgis.com/RLQu0rK7h4kbsBq5/arcgis/rest/services/Store_Locations/FeatureServer|4eebb46e-113c-48ab-8869-6b380522c292|supermarket|Bridgeville Giant Eagle 1241|1025 Washington Pike|Bridgeville|PA|15017|Allegheny||(412) 221-1422|http://maps.google.com?saddr=Current+Location&daddr=1025%20Washington%20Pike%20Bridgeville,%20PA%2015017|40.364407|-80.110413|MapBox GeoCode|||||True|True|True|False|True|False|False|26;757|True||False|True
ARC_GIS_SNAP_QUERY|81|USDA Food and Nutrition Service|https://services1.arcgis.com/RLQu0rK7h4kbsBq5/arcgis/rest/services/Store_Locations/FeatureServer|13530|supermarket|Giant Eagle 641|1025 Washington Pike|Bridgeville|PA|15017|ALLEGHENY||||40.366562|-80.106277|Arc_Gis|||||True|True|False|False|True|False|False||False||False|True
WIC_WS_QUERY|53|PA WIC|https://www.pawic.com||supermarket|Kuhn's Market Bellevue|661 LINCOLN AVE|BELLEVUE|PA|15202|Allegheny||(412) 766-4546|http://maps.google.com?saddr=Current+Location&daddr=661%20LINCOLN%20AVE%20BELLEVUE,%20PA%2015202-3405|40.49717|-80.06028|MapBox GeoCode|||||False|False|True|False|True|False|False||False||False|True
ARC_GIS_SNAP_QUERY|103|USDA Food and Nutrition Service|https://services1.arcgis.com/RLQu0rK7h4kbsBq5/arcgis/rest/services/Store_Locations/FeatureServer|35199|supermarket|KUHNS MARKET|661 Lincoln Ave|Bellevue|PA|15202|ALLEGHENY||||40.497795|-80.060165|Arc_Gis|||||True|True|False|False|True|False|False||False||False|True
WIC_WS_QUERY|66|PA WIC|https://www.pawic.com||supermarket|Shop N Save Holiday Park|2362 GOLDEN MILE HWY|PITTSBURGH|PA|15239|Allegheny||(724) 325-5400|http://maps.google.com?saddr=Current+Location&daddr=2362%20GOLDEN%20MILE%20HWY%20PITTSBURGH,%20PA%2015239-2710|40.462452|-79.704769|MapBox GeoCode|||||False|False|True|False|True|False|False||False||False|True
ARC_GIS_SNAP_QUERY|104|USDA Food and Nutrition Service|https://services1.arcgis.com/RLQu0rK7h4kbsBq5/arcgis/rest/services/Store_Locations/FeatureServer|35587|supermarket|HOLIDAY PARK SHOP N SAVE|2362 Golden Mile Hwy|Pittsburgh|PA|15239|ALLEGHENY||||40.462723|-79.705582|Arc_Gis|||||True|True|False|False|True|False|False||False||False|True
WIC_WS_QUERY|77|PA WIC|https://www.pawic.com||supermarket|Wal-Mart #3838|2010 Village Center Dr|Tarentum|PA|15084|Allegheny||(724) 274-0260|http://maps.google.com?saddr=Current+Location&daddr=2010%20Village%20Center%20Dr%20Tarentum,%20PA%2015084-3850|40.564139|-79.804075|MapBox GeoCode|||||False|False|True|False|True|False|False||False||False|True
ARC_GIS_SNAP_QUERY|150|USDA Food and Nutrition Service|https://services1.arcgis.com/RLQu0rK7h4kbsBq5/arcgis/rest/services/Store_Locations/FeatureServer|47809|supermarket|Walmart 3838|2010 Village Center Dr|Tarentum|PA|15084|ALLEGHENY||||40.562939|-79.803284|Arc_Gis|||||True|True|False|False|True|False|False||False||False|True
WIC_WS_QUERY|10|PA WIC|https://www.pawic.com||supermarket|Giant Eagle #0002|1800 MCKEES ROCKS RD|MC KEES ROCKS|PA|15136|Allegheny||(412) 771-7707|http://maps.google.com?saddr=Current+Location&daddr=1800%20MCKEES%20ROCKS%20RD%20MC%20KEES%20ROCKS,%20PA%2015136-1610|40.467945|-80.097577|MapBox GeoCode|||||False|False|True|False|True|False|False||False||False|True
ARC_GIS_SNAP_QUERY|162|USDA Food and Nutrition Service|https://services1.arcgis.com/RLQu0rK7h4kbsBq5/arcgis/rest/services/Store_Locations/FeatureServer|50672|supermarket|Giant Eagle 2|1800 McKees Rocks Rd|MC Kees Rocks|PA|15136|ALLEGHENY||||40.46941|-80.097015|Arc_Gis|||||True|True|False|False|True|False|False||False||False|True
WIC_WS_QUERY|5|PA WIC|https://www.pawic.com||supermarket|Community Market #96 Bloomfield|4401 LIBERTY AVE|PITTSBURGH|PA|15224|Allegheny||(412) 621-2511|http://maps.google.com?saddr=Current+Location&daddr=4401%20LIBERTY%20AVE%20PITTSBURGH,%20PA%2015224-1561|40.464045|-79.952135|MapBox GeoCode|||||False|False|True|False|True|False|False||False||False|True
ARC_GIS_SNAP_QUERY|176|USDA Food and Nutrition Service|https://services1.arcgis.com/RLQu0rK7h4kbsBq5/arcgis/rest/services/Store_Locations/FeatureServer|52585|supermarket|Community Market Bloomfield 96|4401 Liberty Ave|Pittsburgh|PA|15224|ALLEGHENY||||40.464138|-79.952065|Arc_Gis|||||True|True|False|False|True|False|False||False||False|True
WIC_WS_QUERY|42|PA WIC|https://www.pawic.com||supermarket|Giant Eagle Edgewood #1619|1705 S BRADDOCK AVE|PITTSBURGH|PA|15218|Allegheny||(412) 371-4614|http://maps.google.com?saddr=Current+Location&daddr=1705%20S%20BRADDOCK%20AVE%20PITTSBURGH,%20PA%2015218-1865|40.425659|-79.886794|MapBox GeoCode|||||False|False|True|False|True|False|False||False||False|True
ARC_GIS_SNAP_QUERY|179|USDA Food and Nutrition Service|https://services1.arcgis.com/RLQu0rK7h4kbsBq5/arcgis/rest/services/Store_Locations/FeatureServer|52959|supermarket|Giant Eagle 1619|1705 S Braddock Ave|Pittsburgh|PA|15218|ALLEGHENY||||40.427151|-79.886116|Arc_Gis|||||True|True|False|False|True|False|False||False||False|True
WIC_WS_QUERY|17|PA WIC|https://www.pawic.com||supermarket|Giant Eagle #0043|155 TOWNE CENTRE DR|WEXFORD|PA|15090|Allegheny||(724) 934-0155|http://maps.google.com?saddr=Current+Location&daddr=155%20TOWNE%20CENTRE%20DR%20WEXFORD,%20PA%2015090-5613|40.584625|-80.038074|MapBox GeoCode|||||False|False|True|False|True|False|False||False||False|True
ARC_GIS_SNAP_QUERY|194|USDA Food and Nutrition Service|https://services1.arcgis.com/RLQu0rK7h4kbsBq5/arcgis/rest/services/Store_Locations/FeatureServer|56141|supermarket|Giant Eagle 43|155 Towne Centre Dr|Wexford|PA|15090|ALLEGHENY||||40.631577|-80.05455|Arc_Gis|||||True|True|False|False|True|False|False||False||False|True
WIC_WS_QUERY|58|PA WIC|https://www.pawic.com||supermarket|Pittsburgh Commissary|79 SOLDIERS LN|CORAOPOLIS|PA|15108|Allegheny||(412) 375-6500|http://maps.google.com?saddr=Current+Location&daddr=79%20SOLDIERS%20LN%20CORAOPOLIS,%20PA%2015108-2550|40.50177|-80.21844|MapBox GeoCode|||||False|False|True|False|True|False|False||False||False|True
ARC_GIS_SNAP_QUERY|202|USDA Food and Nutrition Service|https://services1.arcgis.com/RLQu0rK7h4kbsBq5/arcgis/rest/services/Store_Locations/FeatureServer|58844|supermarket|Pittsburgh Commissary 2309|79 Soldiers Ln|Coraopolis|PA|15108|ALLEGHENY||||40.501141|-80.217148|Arc_Gis|||||True|True|False|False|True|False|False||False||False|True
WIC_WS_QUERY|15|PA WIC|https://www.pawic.com||supermarket|Giant Eagle #0031|5260 GROVE RD|PITTSBURGH|PA|15236|Allegheny||(412) 881-4601|http://maps.google.com?saddr=Current+Location&daddr=5260%20GROVE%20RD%20PITTSBURGH,%20PA%2015236-1658|40.357445|-80.002182|MapBox GeoCode|||||False|False|True|False|True|False|False||False||False|True
ARC_GIS_SNAP_QUERY|239|USDA Food and Nutrition Service|https://services1.arcgis.com/RLQu0rK7h4kbsBq5/arcgis/rest/services/Store_Locations/FeatureServer|71072|supermarket|Giant Eagle 31|5260 Grove Rd|Pittsburgh|PA|15236|ALLEGHENY||||40.357906|-80.001556|Arc_Gis|||||True|True|False|False|True|False|False||False||False|True
ARC_GIS_SNAP_QUERY|764|USDA Food and Nutrition Service|https://services1.arcgis.com/RLQu0rK7h4kbsBq5/arcgis/rest/services/Store_Locations/FeatureServer|215930|convenience store|7-Eleven 36145H|643 Liberty Ave|Pittsburgh|PA|15222|ALLEGHENY||||40.4426|-80.000206|Arc_Gis|||||True|True|False|False|False|False|False||False||False|True
ARC_GIS_SNAP_QUERY|251|USDA Food and Nutrition Service|https://services1.arcgis.com/RLQu0rK7h4kbsBq5/arcgis/rest/services/Store_Locations/FeatureServer|73635|convenience store|7-eleven Store 2701 36145B|643 Liberty Ave|Pittsburgh|PA|15222|ALLEGHENY||||40.442364|-80.000259|Arc_Gis|||||True|True|False|False|False|False|False||False||False|True
WIC_WS_QUERY|27|PA WIC|https://www.pawic.com||supermarket|Giant Eagle #1246|51 WALSH RD|PITTSBURGH|PA|15205|Allegheny||(412) 921-4504|http://maps.google.com?saddr=Current+Location&daddr=51%20WALSH%20RD%20PITTSBURGH,%20PA%2015205-2336|40.440641|-80.072036|MapBox GeoCode|||||False|False|True|False|True|False|False||False||False|True
ARC_GIS_SNAP_QUERY|252|USDA Food and Nutrition Service|https://services1.arcgis.com/RLQu0rK7h4kbsBq5/arcgis/rest/services/Store_Locations/FeatureServer|73660|supermarket|GIANT EAGLE 646|51 Walsh Rd|CRAFTON|PA|15205|ALLEGHENY||||40.439888|-80.070869|Arc_Gis|||||True|True|False|False|True|False|False||False||False|True
WIC_WS_QUERY|61|PA WIC|https://www.pawic.com||supermarket|Save-A-Lot|725 ROSS AVE|PITTSBURGH|PA|15221|Allegheny||(412) 242-3204|http://maps.google.com?saddr=Current+Location&daddr=725%20ROSS%20AVE%20PITTSBURGH,%20PA%2015221-2328|40.442757|-79.884081|MapBox GeoCode|||||False|False|True|False|True|False|False||False||False|True
ARC_GIS_SNAP_QUERY|259|USDA Food and Nutrition Service|https://services1.arcgis.com/RLQu0rK7h4kbsBq5/arcgis/rest/services/Store_Locations/FeatureServer|75559|supermarket|Save-a-lot|725 Ross Ave|Pittsburgh|PA|15221|ALLEGHENY||||40.442791|-79.884163|Arc_Gis|||||True|True|False|False|True|False|False||False||False|True
Just Harvest Google Sheets|5|Just Harvest|Just Harvest Google Sheets||convenience store|In & Out Corner Market|300 Helen St.|McKees Rocks|PA|15136|Allegheny|McKees Rocks|||40.474127|-80.057109|MapBox GeoCode|||||True|True|False|False|True|False|False||False||False|True
ARC_GIS_SNAP_QUERY|277|USDA Food and Nutrition Service|https://services1.arcgis.com/RLQu0rK7h4kbsBq5/arcgis/rest/services/Store_Locations/FeatureServer|79581|convenience store|In & Out Corner Market |300 Helen St|McKees Rocks|PA|15136|ALLEGHENY||||40.47398|-80.057198|Arc_Gis|||||True|True|False|False|False|False|False||False||False|True
WIC_WS_QUERY|32|PA WIC|https://www.pawic.com||supermarket|Giant Eagle #5103|2611 FREEPORT RD|PITTSBURGH|PA|15238|Allegheny||(412) 828-3766|http://maps.google.com?saddr=Current+Location&daddr=2611%20FREEPORT%20RD%20PITTSBURGH,%20PA%2015238-1411|40.537875|-79.838797|MapBox GeoCode|||||False|False|True|False|True|False|False||False||False|True
ARC_GIS_SNAP_QUERY|291|USDA Food and Nutrition Service|https://services1.arcgis.com/RLQu0rK7h4kbsBq5/arcgis/rest/services/Store_Locations/FeatureServer|83918|supermarket|Giant Eagle 5103|2611 Freeport Rd|Pittsburgh|PA|15238|ALLEGHENY||||40.537529|-79.836693|Arc_Gis|||||True|True|False|False|True|False|False||False||False|True
WIC_WS_QUERY|22|PA WIC|https://www.pawic.com||supermarket|Giant Eagle #0068|5990 University Blvd|Coraopolis|PA|15108|Allegheny||(412) 264-3856|http://maps.google.com?saddr=Current+Location&daddr=5990%20University%20Blvd%20Coraopolis,%20PA%2015108|40.520688|-80.219582|MapBox GeoCode|||||False|False|True|False|True|False|False||False||False|True
ARC_GIS_SNAP_QUERY|484|USDA Food and Nutrition Service|https://services1.arcgis.com/RLQu0rK7h4kbsBq5/arcgis/rest/services/Store_Locations/FeatureServer|137351|supermarket|Giant Eagle 68|5990 University Blvd|Coraopolis|PA|15108|ALLEGHENY||||40.519936|-80.217804|Arc_Gis|||||True|True|False|False|True|False|False||False||False|True
WIC_WS_QUERY|37|PA WIC|https://www.pawic.com||supermarket|Giant Eagle #74|1165 McKinney Lane|Pittsburgh|PA|15220|Allegheny||(412) 921-1276|http://maps.google.com?saddr=Current+Location&daddr=1165%20McKinney%20Lane%20Pittsburgh,%20PA%2015220|40.423102|-80.035746|MapBox GeoCode|||||False|False|True|False|True|False|False||False||False|True
ARC_GIS_SNAP_QUERY|347|USDA Food and Nutrition Service|https://services1.arcgis.com/RLQu0rK7h4kbsBq5/arcgis/rest/services/Store_Locations/FeatureServer|100631|supermarket|Giant Eagle 74|1165 McKinney Lane|Pittsburgh|PA|15220|ALLEGHENY||||40.423275|-80.034637|Arc_Gis|||||True|True|False|False|True|False|False||False||False|True
WIC_WS_QUERY|34|PA WIC|https://www.pawic.com||supermarket|Giant Eagle #64|3812 ONEIL BLVD|MCKEESPORT|PA|15132|Allegheny||(412) 672-7392|http://maps.google.com?saddr=Current+Location&daddr=3812%20ONEIL%20BLVD%20MCKEESPORT,%20PA%2015132-1507|40.347239|-79.83125|MapBox GeoCode|||||False|False|True|False|True|False|False||False||False|True
ARC_GIS_SNAP_QUERY|407|USDA Food and Nutrition Service|https://services1.arcgis.com/RLQu0rK7h4kbsBq5/arcgis/rest/services/Store_Locations/FeatureServer|115997|supermarket|Giant Eagle 64|3812 Oneil Blvd|McKeesport|PA|15132|ALLEGHENY||||40.34758|-79.832298|Arc_Gis|||||True|True|False|False|True|False|False||False||False|True
WIC_WS_QUERY|51|PA WIC|https://www.pawic.com||supermarket|Haymaker Village Shop N Save|4548 BROADWAY BLVD|MONROEVILLE|PA|15146|Allegheny||(412) 373-2737|http://maps.google.com?saddr=Current+Location&daddr=4548%20BROADWAY%20BLVD%20MONROEVILLE,%20PA%2015146-4745|40.389178|-79.767186|MapBox GeoCode|||||False|False|True|False|True|False|False||False||False|True
ARC_GIS_SNAP_QUERY|413|USDA Food and Nutrition Service|https://services1.arcgis.com/RLQu0rK7h4kbsBq5/arcgis/rest/services/Store_Locations/FeatureServer|116936|supermarket|Haymaker Village Supermarkets|4548 Broadway Blvd|Monroeville|PA|15146|ALLEGHENY||||40.389145|-79.767189|Arc_Gis|||||True|True|False|False|True|False|False||False||False|True
WIC_WS_QUERY|12|PA WIC|https://www.pawic.com||supermarket|Giant Eagle #0018|1671 BUTLER PLANK RD|GLENSHAW|PA|15116|Allegheny||(412) 492-2730|http://maps.google.com?saddr=Current+Location&daddr=1671%20BUTLER%20PLANK%20RD%20GLENSHAW,%20PA%2015116-1744|40.537766|-79.965082|MapBox GeoCode|||||False|False|True|False|True|False|False||False||False|True
ARC_GIS_SNAP_QUERY|415|USDA Food and Nutrition Service|https://services1.arcgis.com/RLQu0rK7h4kbsBq5/arcgis/rest/services/Store_Locations/FeatureServer|118114|supermarket|Giant Eagle 18|1671 Butler Plank Rd|Glenshaw|PA|15116|ALLEGHENY||||40.537659|-79.963448|Arc_Gis|||||True|True|False|False|True|False|False||False||False|True
WIC_WS_QUERY|16|PA WIC|https://www.pawic.com||supermarket|Giant Eagle #0040|5550 CENTRE AVE|PITTSBURGH|PA|15232|Allegheny||(412) 681-1500|http://maps.google.com?saddr=Current+Location&daddr=5550%20CENTRE%20AVE%20PITTSBURGH,%20PA%2015232-1206|40.456454|-79.934557|MapBox GeoCode|||||False|False|True|False|True|False|False||False||False|True
ARC_GIS_SNAP_QUERY|431|USDA Food and Nutrition Service|https://services1.arcgis.com/RLQu0rK7h4kbsBq5/arcgis/rest/services/Store_Locations/FeatureServer|123455|supermarket|GIANT EAGLE 40|5550 Centre Ave|Pittsburgh|PA|15232|ALLEGHENY||||40.456913|-79.935165|Arc_Gis|||||True|True|False|False|True|False|False||False||False|True
WIC_WS_QUERY|72|PA WIC|https://www.pawic.com||supermarket|Shop N Save Russellton|908 Little Deer Creek Valley|RUSSELLTON|PA|15076|Allegheny||(724) 265-2858|http://maps.google.com?saddr=Current+Location&daddr=908%20Little%20Deer%20Creek%20Valley%20RUSSELLTON,%20PA%2015076-0067|40.60839|-79.832682|MapBox GeoCode|||||False|False|True|False|True|False|False||False||False|True
ARC_GIS_SNAP_QUERY|432|USDA Food and Nutrition Service|https://services1.arcgis.com/RLQu0rK7h4kbsBq5/arcgis/rest/services/Store_Locations/FeatureServer|123798|supermarket|RUSSELLTON SHOP N SAVE|908 LITTLE DEER CREEK VALLEY|RUSSELLTON|PA|15076|ALLEGHENY||||40.607555|-79.833443|Arc_Gis|||||True|True|False|False|True|False|False||False||False|True
WIC_WS_QUERY|54|PA WIC|https://www.pawic.com||supermarket|Kuhn's Market South Hills|3125 BANKSVILLE RD|PITTSBURGH|PA|15216|Allegheny||(412) 343-8777|http://maps.google.com?saddr=Current+Location&daddr=3125%20BANKSVILLE%20RD%20PITTSBURGH,%20PA%2015216-2720|40.399809|-80.043452|MapBox GeoCode|||||False|False|True|False|True|False|False||False||False|True
ARC_GIS_SNAP_QUERY|441|USDA Food and Nutrition Service|https://services1.arcgis.com/RLQu0rK7h4kbsBq5/arcgis/rest/services/Store_Locations/FeatureServer|124888|supermarket|Kuhn's Market 4|3125 Banksville Rd|Pittsburgh|PA|15216|ALLEGHENY||||40.39978|-80.043343|Arc_Gis|||||True|True|False|False|True|False|False||False||False|True
WIC_WS_QUERY|68|PA WIC|https://www.pawic.com||supermarket|Shop N Save Mckeesport|815 5TH AVE|MCKEESPORT|PA|15132|Allegheny||(412) 672-7820|http://maps.google.com?saddr=Current+Location&daddr=815%205TH%20AVE%20MCKEESPORT,%20PA%2015132-2509|40.351936|-79.856093|MapBox GeoCode|||||False|False|True|False|True|False|False||False||False|True
ARC_GIS_SNAP_QUERY|447|USDA Food and Nutrition Service|https://services1.arcgis.com/RLQu0rK7h4kbsBq5/arcgis/rest/services/Store_Locations/FeatureServer|126342|supermarket|Fifth Ave Shop N Save|815 5th Ave|McKeesport|PA|15132|ALLEGHENY||||40.351707|-79.855995|Arc_Gis|||||True|True|False|False|True|False|False||False||False|True
WIC_WS_QUERY|45|PA WIC|https://www.pawic.com||supermarket|Giant Eagle Monroeville #60|4010 MONROEVILLE BLVD|MONROEVILLE|PA|15146|Allegheny||(412) 372-1220|http://maps.google.com?saddr=Current+Location&daddr=4010%20MONROEVILLE%20BLVD%20MONROEVILLE,%20PA%2015146-2506|40.4321|-79.77267|MapBox GeoCode|||||False|False|True|False|True|False|False||False||False|True
ARC_GIS_SNAP_QUERY|505|USDA Food and Nutrition Service|https://services1.arcgis.com/RLQu0rK7h4kbsBq5/arcgis/rest/services/Store_Locations/FeatureServer|143021|supermarket|Giant Eagle 60|4010 Monroeville Blvd|Monroeville|PA|15146|ALLEGHENY||||40.435871|-79.771606|Arc_Gis|||||True|True|False|False|True|False|False||False||False|True
WIC_WS_QUERY|24|PA WIC|https://www.pawic.com||supermarket|Giant Eagle #04|5055 LIBRARY RD|BETHEL PARK|PA|15102|Allegheny||(412) 833-8575|http://maps.google.com?saddr=Current+Location&daddr=5055%20LIBRARY%20RD%20BETHEL%20PARK,%20PA%2015102-3611|40.338764|-80.023706|MapBox GeoCode|||||False|False|True|False|True|False|False||False||False|True
ARC_GIS_SNAP_QUERY|522|USDA Food and Nutrition Service|https://services1.arcgis.com/RLQu0rK7h4kbsBq5/arcgis/rest/services/Store_Locations/FeatureServer|148485|supermarket|Giant Eagle 4|5055 Library Rd|Bethel Park|PA|15102|ALLEGHENY||||40.337273|-80.025223|Arc_Gis|||||True|True|False|False|True|False|False||False||False|True
WIC_WS_QUERY|11|PA WIC|https://www.pawic.com||supermarket|Giant Eagle #0014|7000 OXFORD DR|BETHEL PARK|PA|15102|Allegheny||(412) 831-1480|http://maps.google.com?saddr=Current+Location&daddr=7000%20OXFORD%20DR%20BETHEL%20PARK,%20PA%2015102-1863|40.347054|-80.046707|MapBox GeoCode|||||False|False|True|False|True|False|False||False||False|True
ARC_GIS_SNAP_QUERY|523|USDA Food and Nutrition Service|https://services1.arcgis.com/RLQu0rK7h4kbsBq5/arcgis/rest/services/Store_Locations/FeatureServer|148490|supermarket|Giant Eagle 14|7000 Oxford Dr|Bethel Park|PA|15102|ALLEGHENY||||40.347183|-80.049194|Arc_Gis|||||True|True|False|False|True|False|False||False||False|True
WIC_WS_QUERY|64|PA WIC|https://www.pawic.com||supermarket|Shop N Save Glenshaw|917 BUTLER ST|PITTSBURGH|PA|15223|Allegheny||(412) 487-1460|http://maps.google.com?saddr=Current+Location&daddr=917%20BUTLER%20ST%20PITTSBURGH,%20PA%2015223-1303|40.51144|-79.94918|MapBox GeoCode|||||False|False|True|False|True|False|False||False||False|True
ARC_GIS_SNAP_QUERY|527|USDA Food and Nutrition Service|https://services1.arcgis.com/RLQu0rK7h4kbsBq5/arcgis/rest/services/Store_Locations/FeatureServer|149641|supermarket|GLENSHAW SHOP N SAVE|917 Butler St|Pittsburgh|PA|15223|ALLEGHENY||||40.511703|-79.948013|Arc_Gis|||||True|True|False|False|True|False|False||False||False|True
WIC_WS_QUERY|62|PA WIC|https://www.pawic.com||supermarket|Shaler Shop N Save|1620 Babcock Blvd|Pittsburgh|PA|15209|Allegheny||(412) 821-1400|http://maps.google.com?saddr=Current+Location&daddr=1620%20Babcock%20Blvd%20Pittsburgh,%20PA%2015209-1697|40.499178|-79.978982|MapBox GeoCode|||||False|False|True|False|True|False|False||False||False|True
ARC_GIS_SNAP_QUERY|532|USDA Food and Nutrition Service|https://services1.arcgis.com/RLQu0rK7h4kbsBq5/arcgis/rest/services/Store_Locations/FeatureServer|150120|supermarket|SHALER SHOP N SAVE|1620 Babcock Blvd|Pittsburgh|PA|15209|ALLEGHENY||||40.498802|-79.979286|Arc_Gis|||||True|True|False|False|True|False|False||False||False|True
WIC_WS_QUERY|19|PA WIC|https://www.pawic.com||supermarket|Giant Eagle #0052|132 BEN AVON HEIGHTS RD|PITTSBURGH|PA|15237|Allegheny||(412) 364-2390|http://maps.google.com?saddr=Current+Location&daddr=132%20BEN%20AVON%20HEIGHTS%20RD%20PITTSBURGH,%20PA%2015237-1202|40.521579|-80.069126|MapBox GeoCode|||||False|False|True|False|True|False|False||False||False|True
ARC_GIS_SNAP_QUERY|539|USDA Food and Nutrition Service|https://services1.arcgis.com/RLQu0rK7h4kbsBq5/arcgis/rest/services/Store_Locations/FeatureServer|151539|supermarket|Giant Eagle 52|132 Ben Avon Heights Rd|Pittsburgh|PA|15237|ALLEGHENY||||40.522621|-80.068924|Arc_Gis|||||True|True|False|False|True|False|False||False||False|True
WIC_WS_QUERY|56|PA WIC|https://www.pawic.com||supermarket|Kuhns Market- North Hills|4801 McKnight Rd|Pittsburgh|PA|15237|Allegheny||(412) 369-8781|http://maps.google.com?saddr=Current+Location&daddr=4801%20McKnight%20Rd%20Pittsburgh,%20PA%2015237-3412|40.526031|-80.008043|MapBox GeoCode|||||False|False|True|False|True|False|False||False||False|True
ARC_GIS_SNAP_QUERY|566|USDA Food and Nutrition Service|https://services1.arcgis.com/RLQu0rK7h4kbsBq5/arcgis/rest/services/Store_Locations/FeatureServer|159753|supermarket|KUHNS MARKET|4801 McKnight Rd|Pittsburgh|PA|15237|ALLEGHENY||||40.528229|-80.007042|Arc_Gis|||||True|True|False|False|True|False|False||False||False|True
WIC_WS_QUERY|13|PA WIC|https://www.pawic.com||supermarket|Giant Eagle #0025|1029 W VIEW PARK DR|PITTSBURGH|PA|15229|Allegheny||(412) 931-0148|http://maps.google.com?saddr=Current+Location&daddr=1029%20W%20VIEW%20PARK%20DR%20PITTSBURGH,%20PA%2015229-1772|40.51696|-80.038859|MapBox GeoCode|||||False|False|True|False|True|False|False||False||False|True
ARC_GIS_SNAP_QUERY|593|USDA Food and Nutrition Service|https://services1.arcgis.com/RLQu0rK7h4kbsBq5/arcgis/rest/services/Store_Locations/FeatureServer|168919|supermarket|Giant Eagle 25|1029 W View Park Dr|Pittsburgh|PA|15229|ALLEGHENY||||40.51685|-80.038673|Arc_Gis|||||True|True|False|False|True|False|False||False||False|True
WIC_WS_QUERY|76|PA WIC|https://www.pawic.com||supermarket|Wal-Mart #3738|100 Highlands Mall|Natrona Heights|PA|15065|Allegheny||(724) 226-6949|http://maps.google.com?saddr=Current+Location&daddr=100%20Highlands%20Mall%20Natrona%20Heights,%20PA%2015065-1971|40.646984|-79.712979|MapBox GeoCode|||||False|False|True|False|True|False|False||False||False|True
ARC_GIS_SNAP_QUERY|601|USDA Food and Nutrition Service|https://services1.arcgis.com/RLQu0rK7h4kbsBq5/arcgis/rest/services/Store_Locations/FeatureServer|172518|supermarket|Walmart 3738|100 Highlands Mall|Natrona Heights|PA|15065|ALLEGHENY||||40.646206|-79.712196|Arc_Gis|||||True|True|False|False|True|False|False||False||False|True
WIC_WS_QUERY|60|PA WIC|https://www.pawic.com||supermarket|Rochester Road Shop-N-Save|184 Rochester Rd|West View|PA|15229|Allegheny||(412) 931-0743|http://maps.google.com?saddr=Current+Location&daddr=184%20Rochester%20Rd%20West%20View,%20PA%2015229-1399|40.519908|-80.017998|MapBox GeoCode|||||False|False|True|False|True|False|False||False||False|True
ARC_GIS_SNAP_QUERY|614|USDA Food and Nutrition Service|https://services1.arcgis.com/RLQu0rK7h4kbsBq5/arcgis/rest/services/Store_Locations/FeatureServer|175354|supermarket|ROCHESTER ROAD SHOP AND SAVE|184 Rochester Rd|West View|PA|15229|ALLEGHENY||||40.520245|-80.018051|Arc_Gis|||||True|True|False|False|True|False|False||False||False|True
WIC_WS_QUERY|35|PA WIC|https://www.pawic.com||supermarket|Giant Eagle #69|9001 FRANKSTOWN RD|PITTSBURGH|PA|15235|Allegheny||(412) 371-0858|http://maps.google.com?saddr=Current+Location&daddr=9001%20FRANKSTOWN%20RD%20PITTSBURGH,%20PA%2015235-1432|40.462697|-79.865249|MapBox GeoCode|||||False|False|True|False|True|False|False||False||False|True
ARC_GIS_SNAP_QUERY|620|USDA Food and Nutrition Service|https://services1.arcgis.com/RLQu0rK7h4kbsBq5/arcgis/rest/services/Store_Locations/FeatureServer|176175|supermarket|Giant Eagle 69|9001 Frankstown Rd|Pittsburgh|PA|15235|ALLEGHENY||||40.461311|-79.865471|Arc_Gis|||||True|True|False|False|True|False|False||False||False|True
WIC_WS_QUERY|57|PA WIC|https://www.pawic.com||other|Murray Avenue Kosher|1916 MURRAY AVE|PITTSBURGH|PA|15217|Allegheny||(412) 421-1015|http://maps.google.com?saddr=Current+Location&daddr=1916%20MURRAY%20AVE%20PITTSBURGH,%20PA%2015217-1608|40.435511|-79.923029|MapBox GeoCode|||||False|False|True|False|False|False|False||False||False|True
ARC_GIS_SNAP_QUERY|622|USDA Food and Nutrition Service|https://services1.arcgis.com/RLQu0rK7h4kbsBq5/arcgis/rest/services/Store_Locations/FeatureServer|176360|other|MURRAY AVE KOSHER, INC.|1916 Murray Ave|Pittsburgh|PA|15217|ALLEGHENY||||40.43544|-79.922867|Arc_Gis|||||True|True|False|False|False|False|False||False||False|True
WIC_WS_QUERY|43|PA WIC|https://www.pawic.com||supermarket|Giant Eagle Greenfield #63|4250 MURRAY AVE|PITTSBURGH|PA|15217|Allegheny||(412) 421-6472|http://maps.google.com?saddr=Current+Location&daddr=4250%20MURRAY%20AVE%20PITTSBURGH,%20PA%2015217-2904|40.422286|-79.929467|MapBox GeoCode|||||False|False|True|False|True|False|False||False||False|True
ARC_GIS_SNAP_QUERY|623|USDA Food and Nutrition Service|https://services1.arcgis.com/RLQu0rK7h4kbsBq5/arcgis/rest/services/Store_Locations/FeatureServer|176369|supermarket|Giant Eagle 63|4250 Murray Ave|Pittsburgh|PA|15217|ALLEGHENY||||40.422558|-79.928902|Arc_Gis|||||True|True|False|False|True|False|False||False||False|True
WIC_WS_QUERY|0|PA WIC|https://www.pawic.com||supermarket|Asian Grocery|300 Mount Lebanon Blvd|Pittsburgh|PA|15234|Allegheny||(412) 354-0511|http://maps.google.com?saddr=Current+Location&daddr=300%20Mount%20Lebanon%20Blvd%20Pittsburgh,%20PA%2015234|40.36879|-80.034616|MapBox GeoCode|||||False|False|True|False|True|False|False||False||False|True
ARC_GIS_SNAP_QUERY|651|USDA Food and Nutrition Service|https://services1.arcgis.com/RLQu0rK7h4kbsBq5/arcgis/rest/services/Store_Locations/FeatureServer|185658|supermarket|Asian Grocery|300 Mount Lebanon Blvd|Pittsburgh|PA|15234|ALLEGHENY||||40.368683|-80.034859|Arc_Gis|||||True|True|False|False|True|False|False||False||False|True
WIC_WS_QUERY|63|PA WIC|https://www.pawic.com||supermarket|Shop N Save Castle Shannon|799 Castle Shannon Blvd|Pittsburgh|PA|15234|Allegheny||(412) 561-1418|http://maps.google.com?saddr=Current+Location&daddr=799%20Castle%20Shannon%20Blvd%20Pittsburgh,%20PA%2015234-1652|40.3692|-80.02863|MapBox GeoCode|||||False|False|True|False|True|False|False||False||False|True
ARC_GIS_SNAP_QUERY|655|USDA Food and Nutrition Service|https://services1.arcgis.com/RLQu0rK7h4kbsBq5/arcgis/rest/services/Store_Locations/FeatureServer|187046|supermarket|CASTLE SHANNON SHOP N SAVE|799 Castle Shannon Blvd|Pittsburgh|PA|15234|ALLEGHENY||||40.368637|-80.028931|Arc_Gis|||||True|True|False|False|True|False|False||False||False|True
WIC_WS_QUERY|4|PA WIC|https://www.pawic.com||supermarket|Century Square Shop N Save|2381 MOUNTAIN VIEW DR|WEST MIFFLIN|PA|15122|Allegheny||(412) 655-7090|http://maps.google.com?saddr=Current+Location&daddr=2381%20MOUNTAIN%20VIEW%20DR%20WEST%20MIFFLIN,%20PA%2015122-2458|40.344932|-79.946597|MapBox GeoCode|||||False|False|True|False|True|False|False||False||False|True
ARC_GIS_SNAP_QUERY|698|USDA Food and Nutrition Service|https://services1.arcgis.com/RLQu0rK7h4kbsBq5/arcgis/rest/services/Store_Locations/FeatureServer|204666|supermarket|Century Square Shop N Save|2381 Mountain View Dr|West Mifflin|PA|15122|ALLEGHENY||||40.346218|-79.943558|Arc_Gis|||||True|True|False|False|True|False|False||False||False|True
WIC_WS_QUERY|3|PA WIC|https://www.pawic.com||supermarket|Buttermilk Hollow Shop 'n Save|4647 BUTTERMILK HOLLOW RD|WEST MIFFLIN|PA|15122|Allegheny||(412) 831-7177|http://maps.google.com?saddr=Current+Location&daddr=4647%20BUTTERMILK%20HOLLOW%20RD%20WEST%20MIFFLIN,%20PA%2015122-1101|40.36098|-79.906638|MapBox GeoCode|||||False|False|True|False|True|False|False||False||False|True
ARC_GIS_SNAP_QUERY|712|USDA Food and Nutrition Service|https://services1.arcgis.com/RLQu0rK7h4kbsBq5/arcgis/rest/services/Store_Locations/FeatureServer|206683|supermarket|BUTTERMILK SHOP N SAVE|4647 Buttermilk Hollow Rd|West Mifflin|PA|15122|ALLEGHENY||||40.361752|-79.9076|Arc_Gis|||||True|True|False|False|True|False|False||False||False|True
WIC_WS_QUERY|14|PA WIC|https://www.pawic.com||supermarket|Giant Eagle #0029|1356 Hoffman Blvd|West Mifflin|PA|15122|Allegheny||(412) 461-3230|http://maps.google.com?saddr=Current+Location&daddr=1356%20Hoffman%20Blvd%20West%20Mifflin,%20PA%2015122-2301|40.384374|-79.868158|MapBox GeoCode|||||False|False|True|False|True|False|False||False||False|True
ARC_GIS_SNAP_QUERY|718|USDA Food and Nutrition Service|https://services1.arcgis.com/RLQu0rK7h4kbsBq5/arcgis/rest/services/Store_Locations/FeatureServer|207523|supermarket|Giant Eagle 29|1356 Hoffman Blvd|West Mifflin|PA|15122|ALLEGHENY||||40.382355|-79.869904|Arc_Gis|||||True|True|False|False|True|False|False||False||False|True
WIC_WS_QUERY|36|PA WIC|https://www.pawic.com||supermarket|Giant Eagle #73|9901 MOUNTAIN VIEW DR|WEST MIFFLIN|PA|15122|Allegheny||(412) 655-7344|http://maps.google.com?saddr=Current+Location&daddr=9901%20MOUNTAIN%20VIEW%20DR%20WEST%20MIFFLIN,%20PA%2015122-2469|40.339395|-79.94976|MapBox GeoCode|||||False|False|True|False|True|False|False||False||False|True
ARC_GIS_SNAP_QUERY|726|USDA Food and Nutrition Service|https://services1.arcgis.com/RLQu0rK7h4kbsBq5/arcgis/rest/services/Store_Locations/FeatureServer|208197|supermarket|Giant Eagle 73|9901 Mountain View Dr|West Mifflin|PA|15122|ALLEGHENY||||40.338432|-79.951004|Arc_Gis|||||True|True|False|False|True|False|False||False||False|True
WIC_WS_QUERY|67|PA WIC|https://www.pawic.com||supermarket|Shop N Save Imperial|600 MARKET PLACE DR|OAKDALE|PA|15071|Allegheny||(724) 695-1669|http://maps.google.com?saddr=Current+Location&daddr=600%20MARKET%20PLACE%20DR%20OAKDALE,%20PA%2015071-4008|40.440287|-80.241143|MapBox GeoCode|||||False|False|True|False|True|False|False||False||False|True
ARC_GIS_SNAP_QUERY|733|USDA Food and Nutrition Service|https://services1.arcgis.com/RLQu0rK7h4kbsBq5/arcgis/rest/services/Store_Locations/FeatureServer|209879|supermarket|IMPERIAL SHOP N SAVE|600 Market Place Dr|Oakdale|PA|15071|ALLEGHENY||||40.440285|-80.239944|Arc_Gis|||||True|True|False|False|True|False|False||False||False|True
WIC_WS_QUERY|52|PA WIC|https://www.pawic.com||supermarket|Kuhn's Market|1130 HIGHWOOD ST|PITTSBURGH|PA|15212|Allegheny||(412) 231-8808|http://maps.google.com?saddr=Current+Location&daddr=1130%20HIGHWOOD%20ST%20PITTSBURGH,%20PA%2015212-2771|40.468534|-80.026562|MapBox GeoCode|||||False|False|True|False|True|False|False||False||False|True
ARC_GIS_SNAP_QUERY|767|USDA Food and Nutrition Service|https://services1.arcgis.com/RLQu0rK7h4kbsBq5/arcgis/rest/services/Store_Locations/FeatureServer|216702|supermarket|Kuhn's Market 3|1130 Highwood St|Pittsburgh|PA|15212|ALLEGHENY||||40.468643|-80.026672|Arc_Gis|||||True|True|False|False|True|False|False||False||False|True
WIC_WS_QUERY|25|PA WIC|https://www.pawic.com||supermarket|Giant Eagle #1220|2001 Lincoln Way|White Oak|PA|15131|Allegheny||(412) 664-3500|http://maps.google.com?saddr=Current+Location&daddr=2001%20Lincoln%20Way%20White%20Oak,%20PA%2015131|40.336213|-79.804684|MapBox GeoCode|||||False|False|True|False|True|False|False||False||False|True
ARC_GIS_SNAP_QUERY|825|USDA Food and Nutrition Service|https://services1.arcgis.com/RLQu0rK7h4kbsBq5/arcgis/rest/services/Store_Locations/FeatureServer|231223|supermarket|White Oak Giant Eagle|2001 Lincoln Way|White Oak|PA|15131|ALLEGHENY||||40.337402|-79.80867|Arc_Gis|||||True|True|False|False|True|False|False||False||False|True
WIC_WS_QUERY|2|PA WIC|https://www.pawic.com||supermarket|Brentwood Giant Eagle 0093|600 TOWNE SQUARE WAY|PITTSBURGH|PA|15227|Allegheny||(412) 881-4075|http://maps.google.com?saddr=Current+Location&daddr=600%20TOWNE%20SQUARE%20WAY%20PITTSBURGH,%20PA%2015227-3257|40.36563|-79.983341|MapBox GeoCode|||||False|False|True|False|True|False|False||False||False|True
ARC_GIS_SNAP_QUERY|913|USDA Food and Nutrition Service|https://services1.arcgis.com/RLQu0rK7h4kbsBq5/arcgis/rest/services/Store_Locations/FeatureServer|239598|supermarket|Giant Eagle 93|600 Towne Square Way|Pittsburgh|PA|15227|ALLEGHENY||||40.367905|-79.982513|Arc_Gis|||||True|True|False|False|True|False|False||False||False|True
ARC_GIS_FMNP_QUERY|25|FMNP Markets|https://services5.arcgis.com/n3KaqXoFYDuIhfyz/ArcGIS/rest/services/FMNPMarkets/FeatureServer|3482|farmer's market|The Block at Northway|8013 McKnight Rd|Pittsburgh|PA|15237|Allegheny||||40.5516087|-80.0209421|Arc_Gis|||||True|True|True|True|True|False|False||False||False|True
ARC_GIS_FMNP_QUERY|14|FMNP Markets|https://services5.arcgis.com/n3KaqXoFYDuIhfyz/ArcGIS/rest/services/FMNPMarkets/FeatureServer|3932|farmer's market|Farmers Market at The Block|8013 McKnight Rd|Pittsburgh|PA|15237|Allegheny|August - September Friday 3:00 PM - 6:00 PM|||40.551259|-80.0210399|Arc_Gis|August 1|September 30|||True|True|True|True|True|False|False||False||False|True
Just Harvest Google Sheets|8|Just Harvest|Just Harvest Google Sheets||farmer's market|Homewood Farmers Market|7139 Fransktown Ave|Pittsburgh|PA|15208|Allegheny|July 3rd-July 31st<br/>Wednedays 3pm-5:30pm|||40.457474|-79.896602|MapBox GeoCode|July 3rd|July 31st|||True|True|True|True|True|False|False||False||False|True
Just Harvest Google Sheets|7|Just Harvest|Just Harvest Google Sheets||farmer's market|Homewood Farmers Market|7139 Fransktown Ave|Pittsburgh|PA|15208|Allegheny|July 27th-October 26th<br/>Last Saturdays 3pm-7pm|||40.457474|-79.896602|MapBox GeoCode|July 27th|October 26th|||True|True|True|True|True|False|False||False||False|True
